{
    "type": "FeatureCollection",
    "features": [
{ "type": "Feature", "properties": { "name": "Белобородово", "time": "01.01.1024 01:01:01+01" }, "geometry": { "type": "Point", "coordinates": [ 82.054642, 55.065739 ] } },
{ "type": "Feature", "properties": { "name": "Филошенка", "time": "01.01.1418 01:01:01+01" }, "geometry": { "type": "Point", "coordinates": [ 77.357162, 56.245991 ] } },
{ "type": "Feature", "properties": { "name": "Кирза", "time": "01.01.1460 01:01:01+01" }, "geometry": { "type": "Point", "coordinates": [ 81.654251, 54.240887 ] } },
{ "type": "Feature", "properties": { "name": "Шибково", "time": "01.01.1476 01:01:01+01" }, "geometry": { "type": "Point", "coordinates": [ 83.288345, 54.49353 ] } },
{ "type": "Feature", "properties": { "name": "Теренино", "time": "01.01.1500 01:01:01+01" }, "geometry": { "type": "Point", "coordinates": [ 80.41655, 55.342621 ] } },
{ "type": "Feature", "properties": { "name": "Верх-Сузун", "time": "01.01.1525 01:01:01+01" }, "geometry": { "type": "Point", "coordinates": [ 82.294952, 53.681107 ] } },
{ "type": "Feature", "properties": { "name": "Боровая", "time": "01.01.1525 01:01:01+01" }, "geometry": { "type": "Point", "coordinates": [ 84.721504, 55.240841 ] } },
{ "type": "Feature", "properties": { "name": "Шилово", "time": "01.01.1526 01:01:01+01" }, "geometry": { "type": "Point", "coordinates": [ 82.423157, 54.731796 ] } },
{ "type": "Feature", "properties": { "name": "Киик", "time": "01.01.1530 01:01:01+01" }, "geometry": { "type": "Point", "coordinates": [ 84.691559, 55.244522 ] } },
{ "type": "Feature", "properties": { "name": "Таскаево", "time": "01.01.1532 01:01:01+01" }, "geometry": { "type": "Point", "coordinates": [ 83.23497, 54.507427 ] } },
{ "type": "Feature", "properties": { "name": "Локтёнок", "time": "01.01.1576 01:01:01+01" }, "geometry": { "type": "Point", "coordinates": [ 79.034554, 53.959328 ] } },
{ "type": "Feature", "properties": { "name": "Локти", "time": "01.01.1576 01:01:01+01" }, "geometry": { "type": "Point", "coordinates": [ 83.1838105, 55.268401 ] } },
{ "type": "Feature", "properties": { "name": "Болтово", "time": "01.01.1576 01:01:01+01" }, "geometry": { "type": "Point", "coordinates": [ 82.265205, 54.026859 ] } },
{ "type": "Feature", "properties": { "name": "Поперечное", "time": "01.01.1586 01:01:01+01" }, "geometry": { "type": "Point", "coordinates": [ 82.254807, 54.587929 ] } },
{ "type": "Feature", "properties": { "name": "Тогучин", "time": "01.01.1600 01:01:01+01" }, "geometry": { "type": "Point", "coordinates": [ 84.402458, 55.23769 ] } },
{ "type": "Feature", "properties": { "name": "Мангазерка", "time": "01.01.1600 01:01:01+01" }, "geometry": { "type": "Point", "coordinates": [ 78.024643, 55.509621 ] } },
{ "type": "Feature", "properties": { "name": "Издревая", "time": "01.01.1600 01:01:01+01" }, "geometry": { "type": "Point", "coordinates": [ 83.2459288, 54.9864402 ] } },
{ "type": "Feature", "properties": { "name": "Каргат", "time": "01.01.1620 01:01:01+01" }, "geometry": { "type": "Point", "coordinates": [ 80.2828252, 55.1929899 ] } },
{ "type": "Feature", "properties": { "name": "Устьянцево", "time": "01.01.1620 01:01:01+01" }, "geometry": { "type": "Point", "coordinates": [ 77.939293, 55.293018 ] } },
{ "type": "Feature", "properties": { "name": "Маук", "time": "01.01.1623 01:01:01+01" }, "geometry": { "type": "Point", "coordinates": [ 78.747658, 55.076389 ] } },
{ "type": "Feature", "properties": { "name": "Ярки", "time": "01.01.1624 01:01:01+01" }, "geometry": { "type": "Point", "coordinates": [ 79.721565, 54.791409 ] } },
{ "type": "Feature", "properties": { "name": "Бочкарево", "time": "01.01.1625 01:01:01+01" }, "geometry": { "type": "Point", "coordinates": [ 83.4617279, 54.2492351 ] } },
{ "type": "Feature", "properties": { "name": "Листвянка", "time": "01.01.1625 01:01:01+01" }, "geometry": { "type": "Point", "coordinates": [ 83.716469, 54.151337 ] } },
{ "type": "Feature", "properties": { "name": "Шурыгино", "time": "01.01.1625 01:01:01+01" }, "geometry": { "type": "Point", "coordinates": [ 82.86483, 54.075077 ] } },
{ "type": "Feature", "properties": { "name": "Каргаполово", "time": "01.01.1625 01:01:01+01" }, "geometry": { "type": "Point", "coordinates": [ 81.9350624, 53.7521552 ] } },
{ "type": "Feature", "properties": { "name": "Новолокти", "time": "01.01.1625 01:01:01+01" }, "geometry": { "type": "Point", "coordinates": [ 82.908226, 54.392899 ] } },
{ "type": "Feature", "properties": { "name": "Чупино", "time": "01.01.1625 01:01:01+01" }, "geometry": { "type": "Point", "coordinates": [ 82.952698, 54.525436 ] } },
{ "type": "Feature", "properties": { "name": "Тальменка", "time": "01.01.1626 01:01:01+01" }, "geometry": { "type": "Point", "coordinates": [ 83.2747819, 54.70626 ] } },
{ "type": "Feature", "properties": { "name": "Сосновка", "time": "01.01.1626 01:01:01+01" }, "geometry": { "type": "Point", "coordinates": [ 82.9559289, 54.6818979 ] } },
{ "type": "Feature", "properties": { "name": "Огнева Заимка", "time": "01.01.1626 01:01:01+01" }, "geometry": { "type": "Point", "coordinates": [ 83.740364, 54.287239 ] } },
{ "type": "Feature", "properties": { "name": "Медведское", "time": "01.01.1626 01:01:01+01" }, "geometry": { "type": "Point", "coordinates": [ 83.5516523, 54.4015797 ] } },
{ "type": "Feature", "properties": { "name": "Верх-Мильтюши", "time": "01.01.1626 01:01:01+01" }, "geometry": { "type": "Point", "coordinates": [ 82.909431, 54.303646 ] } },
{ "type": "Feature", "properties": { "name": "Ача", "time": "01.01.1626 01:01:01+01" }, "geometry": { "type": "Point", "coordinates": [ 84.617424, 55.642166 ] } },
{ "type": "Feature", "properties": { "name": "Тула", "time": "01.01.1628 01:01:01+01" }, "geometry": { "type": "Point", "coordinates": [ 82.6998453, 54.5931072 ] } },
{ "type": "Feature", "properties": { "name": "Чингиссы", "time": "01.01.1630 01:01:01+01" }, "geometry": { "type": "Point", "coordinates": [ 81.622541, 54.1259518 ] } },
{ "type": "Feature", "properties": { "name": "Иткуль", "time": "01.01.1630 01:01:01+01" }, "geometry": { "type": "Point", "coordinates": [ 81.024162, 55.080929 ] } },
{ "type": "Feature", "properties": { "name": "Тармакуль", "time": "01.01.1640 01:01:01+01" }, "geometry": { "type": "Point", "coordinates": [ 76.972878, 55.307568 ] } },
{ "type": "Feature", "properties": { "name": "Коурак", "time": "01.01.1643 01:01:01+01" }, "geometry": { "type": "Point", "coordinates": [ 84.676628, 54.828789 ] } },
{ "type": "Feature", "properties": { "name": "Бадажки", "time": "01.01.1648 01:01:01+01" }, "geometry": { "type": "Point", "coordinates": [ 78.1247259, 55.1877526 ] } },
{ "type": "Feature", "properties": { "name": "Коченёво", "time": "01.01.1650 01:01:01+01" }, "geometry": { "type": "Point", "coordinates": [ 82.207718, 55.021442 ] } },
{ "type": "Feature", "properties": { "name": "Нововоскресенка", "time": "01.01.1650 01:01:01+01" }, "geometry": { "type": "Point", "coordinates": [ 83.059692, 54.095501 ] } },
{ "type": "Feature", "properties": { "name": "Каяк", "time": "01.01.1650 01:01:01+01" }, "geometry": { "type": "Point", "coordinates": [ 80.79615, 55.03167 ] } },
{ "type": "Feature", "properties": { "name": "Верх-Тула", "time": "01.01.1654 01:01:01+01" }, "geometry": { "type": "Point", "coordinates": [ 82.7739688, 54.8824491 ] } },
{ "type": "Feature", "properties": { "name": "Мотково", "time": "01.01.1656 01:01:01+01" }, "geometry": { "type": "Point", "coordinates": [ 83.605278, 55.129715 ] } },
{ "type": "Feature", "properties": { "name": "Боровлянка", "time": "01.01.1656 01:01:01+01" }, "geometry": { "type": "Point", "coordinates": [ 84.112122, 55.018082 ] } },
{ "type": "Feature", "properties": { "name": "Старые Карачи", "time": "01.01.1674 01:01:01+01" }, "geometry": { "type": "Point", "coordinates": [ 77.048927, 55.495968 ] } },
{ "type": "Feature", "properties": { "name": "Новогутово", "time": "01.01.1675 01:01:01+01" }, "geometry": { "type": "Point", "coordinates": [ 78.460533, 55.308029 ] } },
{ "type": "Feature", "properties": { "name": "Убинское", "time": "01.01.1675 01:01:01+01" }, "geometry": { "type": "Point", "coordinates": [ 79.679375, 55.306721 ] } },
{ "type": "Feature", "properties": { "name": "Барлак", "time": "01.01.1675 01:01:01+01" }, "geometry": { "type": "Point", "coordinates": [ 83.2197282, 55.212267 ] } },
{ "type": "Feature", "properties": { "name": "Вахрушево", "time": "01.01.1675 01:01:01+01" }, "geometry": { "type": "Point", "coordinates": [ 82.155624, 55.250351 ] } },
{ "type": "Feature", "properties": { "name": "Яркуль", "time": "01.01.1675 01:01:01+01" }, "geometry": { "type": "Point", "coordinates": [ 77.373901, 54.637623 ] } },
{ "type": "Feature", "properties": { "name": "Чумашки", "time": "01.01.1675 01:01:01+01" }, "geometry": { "type": "Point", "coordinates": [ 77.791283, 54.468666 ] } },
{ "type": "Feature", "properties": { "name": "Осинцево", "time": "01.01.1675 01:01:01+01" }, "geometry": { "type": "Point", "coordinates": [ 77.231178, 55.497696 ] } },
{ "type": "Feature", "properties": { "name": "Федосиха", "time": "01.01.1676 01:01:01+01" }, "geometry": { "type": "Point", "coordinates": [ 81.894478, 54.786552 ] } },
{ "type": "Feature", "properties": { "name": "Изылы", "time": "01.01.1676 01:01:01+01" }, "geometry": { "type": "Point", "coordinates": [ 84.573685, 55.169727 ] } },
{ "type": "Feature", "properties": { "name": "Аул-Бергуль", "time": "01.01.1676 01:01:01+01" }, "geometry": { "type": "Point", "coordinates": [ 78.3561943, 55.6065417 ] } },
{ "type": "Feature", "properties": { "name": "Голдоба", "time": "01.01.1676 01:01:01+01" }, "geometry": { "type": "Point", "coordinates": [ 78.1370401, 55.3164843 ] } },
{ "type": "Feature", "properties": { "name": "Кошкуль", "time": "01.01.1680 01:01:01+01" }, "geometry": { "type": "Point", "coordinates": [ 77.158821, 55.365917 ] } },
{ "type": "Feature", "properties": { "name": "Погорелка", "time": "01.01.1680 01:01:01+01" }, "geometry": { "type": "Point", "coordinates": [ 77.442673, 55.446445 ] } },
{ "type": "Feature", "properties": { "name": "Сергино", "time": "01.01.1686 01:01:01+01" }, "geometry": { "type": "Point", "coordinates": [ 77.502121, 55.473053 ] } },
{ "type": "Feature", "properties": { "name": "Зудово", "time": "01.01.1687 01:01:01+01" }, "geometry": { "type": "Point", "coordinates": [ 84.260231, 55.824898 ] } },
{ "type": "Feature", "properties": { "name": "Еланка", "time": "01.01.1690 01:01:01+01" }, "geometry": { "type": "Point", "coordinates": [ 75.294067, 55.625153 ] } },
{ "type": "Feature", "properties": { "name": "Малый Оеш", "time": "01.01.1692 01:01:01+01" }, "geometry": { "type": "Point", "coordinates": [ 82.6551692, 55.2756392 ] } },
{ "type": "Feature", "properties": { "name": "Старый Порос", "time": "01.01.1695 01:01:01+01" }, "geometry": { "type": "Point", "coordinates": [ 83.4830511, 55.4203267 ] } },
{ "type": "Feature", "properties": { "name": "Кругликово", "time": "01.01.1695 01:01:01+01" }, "geometry": { "type": "Point", "coordinates": [ 83.855682, 55.838856 ] } },
{ "type": "Feature", "properties": { "name": "Чаус", "time": "01.01.1695 01:01:01+01" }, "geometry": { "type": "Point", "coordinates": [ 82.780052, 55.343563 ] } },
{ "type": "Feature", "properties": { "name": "Битки", "time": "01.01.1696 01:01:01+01" }, "geometry": { "type": "Point", "coordinates": [ 82.27327, 54.204201 ] } },
{ "type": "Feature", "properties": { "name": "Полойка", "time": "01.01.1700 01:01:01+01" }, "geometry": { "type": "Point", "coordinates": [ 79.321495, 54.201042 ] } },
{ "type": "Feature", "properties": { "name": "Бурмистрово", "time": "01.01.1700 01:01:01+01" }, "geometry": { "type": "Point", "coordinates": [ 82.8328767, 54.6345591 ] } },
{ "type": "Feature", "properties": { "name": "Криводановка", "time": "01.01.1700 01:01:01+01" }, "geometry": { "type": "Point", "coordinates": [ 82.6440062, 55.0859006 ] } },
{ "type": "Feature", "properties": { "name": "Зимовье", "time": "01.01.1700 01:01:01+01" }, "geometry": { "type": "Point", "coordinates": [ 83.54393, 54.23177 ] } },
{ "type": "Feature", "properties": { "name": "Колтырак", "time": "01.01.1700 01:01:01+01" }, "geometry": { "type": "Point", "coordinates": [ 84.915924, 54.788818 ] } },
{ "type": "Feature", "properties": { "name": "Карагужево", "time": "01.01.1700 01:01:01+01" }, "geometry": { "type": "Point", "coordinates": [ 83.12355, 54.151638 ] } },
{ "type": "Feature", "properties": { "name": "Инской", "time": "01.01.1700 01:01:01+01" }, "geometry": { "type": "Point", "coordinates": [ 83.229607, 54.222004 ] } },
{ "type": "Feature", "properties": { "name": "Харино", "time": "01.01.1700 01:01:01+01" }, "geometry": { "type": "Point", "coordinates": [ 83.609215, 54.617702 ] } },
{ "type": "Feature", "properties": { "name": "Корнилово", "time": "01.01.1700 01:01:01+01" }, "geometry": { "type": "Point", "coordinates": [ 84.60041, 55.515568 ] } },
{ "type": "Feature", "properties": { "name": "Юрт-Акбалык", "time": "01.01.1700 01:01:01+01" }, "geometry": { "type": "Point", "coordinates": [ 83.563278, 55.657207 ] } },
{ "type": "Feature", "properties": { "name": "Назарово", "time": "01.01.1700 01:01:01+01" }, "geometry": { "type": "Point", "coordinates": [ 77.5561108, 55.6664298 ] } },
{ "type": "Feature", "properties": { "name": "Марково", "time": "01.01.1700 01:01:01+01" }, "geometry": { "type": "Point", "coordinates": [ 78.034943, 55.397602 ] } },
{ "type": "Feature", "properties": { "name": "Старощербаково", "time": "01.01.1700 01:01:01+01" }, "geometry": { "type": "Point", "coordinates": [ 78.456367, 55.36911 ] } },
{ "type": "Feature", "properties": { "name": "Зюзя", "time": "01.01.1700 01:01:01+01" }, "geometry": { "type": "Point", "coordinates": [ 77.854271, 55.09177 ] } },
{ "type": "Feature", "properties": { "name": "Кукарка", "time": "01.01.1700 01:01:01+01" }, "geometry": { "type": "Point", "coordinates": [ 78.402504, 54.208897 ] } },
{ "type": "Feature", "properties": { "name": "Старый Кошкуль", "time": "01.01.1700 01:01:01+01" }, "geometry": { "type": "Point", "coordinates": [ 76.657928, 54.970478 ] } },
{ "type": "Feature", "properties": { "name": "Искитим", "time": "01.01.1702 01:01:01+01" }, "geometry": { "type": "Point", "coordinates": [ 83.3035676, 54.6426269 ] } },
{ "type": "Feature", "properties": { "name": "Бердь", "time": "01.01.1702 01:01:01+01" }, "geometry": { "type": "Point", "coordinates": [ 83.1826883, 54.742159 ] } },
{ "type": "Feature", "properties": { "name": "Большая Тахта", "time": "01.01.1702 01:01:01+01" }, "geometry": { "type": "Point", "coordinates": [ 76.0703801, 54.7002236 ] } },
{ "type": "Feature", "properties": { "name": "Довольное", "time": "01.01.1703 01:01:01+01" }, "geometry": { "type": "Point", "coordinates": [ 79.667091, 54.495785 ] } },
{ "type": "Feature", "properties": { "name": "Умрева", "time": "01.01.1704 01:01:01+01" }, "geometry": { "type": "Point", "coordinates": [ 83.629333, 55.546612 ] } },
{ "type": "Feature", "properties": { "name": "Нижнекаменка", "time": "01.01.1705 01:01:01+01" }, "geometry": { "type": "Point", "coordinates": [ 81.907921, 54.314812 ] } },
{ "type": "Feature", "properties": { "name": "Морозово", "time": "01.01.1708 01:01:01+01" }, "geometry": { "type": "Point", "coordinates": [ 83.2178159, 54.7661423 ] } },
{ "type": "Feature", "properties": { "name": "Бедрино", "time": "01.01.1708 01:01:01+01" }, "geometry": { "type": "Point", "coordinates": [ 82.267639, 53.987228 ] } },
{ "type": "Feature", "properties": { "name": "Козиха", "time": "01.01.1709 01:01:01+01" }, "geometry": { "type": "Point", "coordinates": [ 82.12133, 54.561604 ] } },
{ "type": "Feature", "properties": { "name": "Голомыскино", "time": "01.01.1711 01:01:01+01" }, "geometry": { "type": "Point", "coordinates": [ 84.642738, 55.031071 ] } },
{ "type": "Feature", "properties": { "name": "Большой Оёш", "time": "01.01.1713 01:01:01+01" }, "geometry": { "type": "Point", "coordinates": [ 82.715936, 55.2894615 ] } },
{ "type": "Feature", "properties": { "name": "Колывань", "time": "01.01.1713 01:01:01+01" }, "geometry": { "type": "Point", "coordinates": [ 82.7433464, 55.3068791 ] } },
{ "type": "Feature", "properties": { "name": "Козино", "time": "01.01.1715 01:01:01+01" }, "geometry": { "type": "Point", "coordinates": [ 75.489632, 55.515091 ] } },
{ "type": "Feature", "properties": { "name": "Бердск", "time": "01.01.1716 01:01:01+01" }, "geometry": { "type": "Point", "coordinates": [ 83.1068095, 54.75795 ] } },
{ "type": "Feature", "properties": { "name": "Узунгуль", "time": "01.01.1716 01:01:01+01" }, "geometry": { "type": "Point", "coordinates": [ 76.47464, 55.438496 ] } },
{ "type": "Feature", "properties": { "name": "Дресвянка", "time": "01.01.1719 01:01:01+01" }, "geometry": { "type": "Point", "coordinates": [ 84.543533, 54.198959 ] } },
{ "type": "Feature", "properties": { "name": "Борково", "time": "01.01.1719 01:01:01+01" }, "geometry": { "type": "Point", "coordinates": [ 84.058327, 54.224659 ] } },
{ "type": "Feature", "properties": { "name": "Мочище", "time": "01.01.1720 01:01:01+01" }, "geometry": { "type": "Point", "coordinates": [ 83.1180475, 55.1563637 ] } },
{ "type": "Feature", "properties": { "name": "Усть-Сумы", "time": "01.01.1720 01:01:01+01" }, "geometry": { "type": "Point", "coordinates": [ 80.251602, 54.847485 ] } },
{ "type": "Feature", "properties": { "name": "Тропино", "time": "01.01.1720 01:01:01+01" }, "geometry": { "type": "Point", "coordinates": [ 82.695381, 55.533329 ] } },
{ "type": "Feature", "properties": { "name": "Овчинниково", "time": "01.01.1720 01:01:01+01" }, "geometry": { "type": "Point", "coordinates": [ 81.684494, 55.197777 ] } },
{ "type": "Feature", "properties": { "name": "Мочище", "time": "01.01.1720 01:01:01+01" }, "geometry": { "type": "Point", "coordinates": [ 82.8482862, 55.1472168 ] } },
{ "type": "Feature", "properties": { "name": "Блюдцы", "time": "01.01.1720 01:01:01+01" }, "geometry": { "type": "Point", "coordinates": [ 76.994354, 54.948029 ] } },
{ "type": "Feature", "properties": { "name": "Барсуково", "time": "01.01.1721 01:01:01+01" }, "geometry": { "type": "Point", "coordinates": [ 83.936424, 54.389957 ] } },
{ "type": "Feature", "properties": { "name": "Вагайцево", "time": "01.01.1721 01:01:01+01" }, "geometry": { "type": "Point", "coordinates": [ 81.862457, 54.364994 ] } },
{ "type": "Feature", "properties": { "name": "Скала", "time": "01.01.1722 01:01:01+01" }, "geometry": { "type": "Point", "coordinates": [ 82.772743, 55.379478 ] } },
{ "type": "Feature", "properties": { "name": "Красный Яр", "time": "01.01.1722 01:01:01+01" }, "geometry": { "type": "Point", "coordinates": [ 82.15686, 54.453373 ] } },
{ "type": "Feature", "properties": { "name": "Верх-Коён", "time": "01.01.1722 01:01:01+01" }, "geometry": { "type": "Point", "coordinates": [ 83.507347, 54.868355 ] } },
{ "type": "Feature", "properties": { "name": "Старый Тартас", "time": "01.01.1722 01:01:01+01" }, "geometry": { "type": "Point", "coordinates": [ 76.743515, 55.610928 ] } },
{ "type": "Feature", "properties": { "name": "Старогорносталево", "time": "01.01.1723 01:01:01+01" }, "geometry": { "type": "Point", "coordinates": [ 79.230797, 54.663452 ] } },
{ "type": "Feature", "properties": { "name": "Нижний Коён", "time": "01.01.1724 01:01:01+01" }, "geometry": { "type": "Point", "coordinates": [ 83.396286, 54.815178 ] } },
{ "type": "Feature", "properties": { "name": "Заливино", "time": "01.01.1724 01:01:01+01" }, "geometry": { "type": "Point", "coordinates": [ 76.33252, 56.453327 ] } },
{ "type": "Feature", "properties": { "name": "Сумы", "time": "01.01.1725 01:01:01+01" }, "geometry": { "type": "Point", "coordinates": [ 80.442612, 54.81551 ] } },
{ "type": "Feature", "properties": { "name": "Степногутово", "time": "01.01.1725 01:01:01+01" }, "geometry": { "type": "Point", "coordinates": [ 84.967766, 54.846779 ] } },
{ "type": "Feature", "properties": { "name": "Крутологово", "time": "01.01.1725 01:01:01+01" }, "geometry": { "type": "Point", "coordinates": [ 82.091835, 55.30724 ] } },
{ "type": "Feature", "properties": { "name": "Чик", "time": "01.01.1726 01:01:01+01" }, "geometry": { "type": "Point", "coordinates": [ 82.4427018, 54.9944056 ] } },
{ "type": "Feature", "properties": { "name": "Прокудское", "time": "01.01.1726 01:01:01+01" }, "geometry": { "type": "Point", "coordinates": [ 82.4593467, 55.0101158 ] } },
{ "type": "Feature", "properties": { "name": "Евсино", "time": "01.01.1726 01:01:01+01" }, "geometry": { "type": "Point", "coordinates": [ 83.322159, 54.417175 ] } },
{ "type": "Feature", "properties": { "name": "Заковряжино", "time": "01.01.1726 01:01:01+01" }, "geometry": { "type": "Point", "coordinates": [ 82.424141, 54.03175 ] } },
{ "type": "Feature", "properties": { "name": "Мосты", "time": "01.01.1726 01:01:01+01" }, "geometry": { "type": "Point", "coordinates": [ 83.85585, 54.770237 ] } },
{ "type": "Feature", "properties": { "name": "Буньково", "time": "01.01.1726 01:01:01+01" }, "geometry": { "type": "Point", "coordinates": [ 82.4844871, 55.0629392 ] } },
{ "type": "Feature", "properties": { "name": "Кушаги", "time": "01.01.1726 01:01:01+01" }, "geometry": { "type": "Point", "coordinates": [ 75.750587, 55.672108 ] } },
{ "type": "Feature", "properties": { "name": "Малинино", "time": "01.01.1726 01:01:01+01" }, "geometry": { "type": "Point", "coordinates": [ 76.282463, 55.559647 ] } },
{ "type": "Feature", "properties": { "name": "Бакмасиха", "time": "01.01.1726 01:01:01+01" }, "geometry": { "type": "Point", "coordinates": [ 78.835938, 55.152081 ] } },
{ "type": "Feature", "properties": { "name": "Малый Тебис", "time": "01.01.1726 01:01:01+01" }, "geometry": { "type": "Point", "coordinates": [ 76.720139, 55.486511 ] } },
{ "type": "Feature", "properties": { "name": "Шарчино", "time": "01.01.1727 01:01:01+01" }, "geometry": { "type": "Point", "coordinates": [ 82.53228, 54.267941 ] } },
{ "type": "Feature", "properties": { "name": "Ключевая", "time": "01.01.1727 01:01:01+01" }, "geometry": { "type": "Point", "coordinates": [ 76.837975, 55.71822 ] } },
{ "type": "Feature", "properties": { "name": "Верх-Красноярка", "time": "01.01.1727 01:01:01+01" }, "geometry": { "type": "Point", "coordinates": [ 77.923141, 56.367542 ] } },
{ "type": "Feature", "properties": { "name": "Тебисское", "time": "01.01.1727 01:01:01+01" }, "geometry": { "type": "Point", "coordinates": [ 77.458611, 55.340923 ] } },
{ "type": "Feature", "properties": { "name": "Покровка", "time": "01.10.1727 01:01:01+01" }, "geometry": { "type": "Point", "coordinates": [ 77.222984, 55.56152 ] } },
{ "type": "Feature", "properties": { "name": "Татарка", "time": "01.01.1730 01:01:01+01" }, "geometry": { "type": "Point", "coordinates": [ 83.7314, 54.187412 ] } },
{ "type": "Feature", "properties": { "name": "Дорогина Заимка", "time": "01.01.1730 01:01:01+01" }, "geometry": { "type": "Point", "coordinates": [ 83.181229, 54.344009 ] } },
{ "type": "Feature", "properties": { "name": "Балта", "time": "01.01.1730 01:01:01+01" }, "geometry": { "type": "Point", "coordinates": [ 83.8707201, 55.5158779 ] } },
{ "type": "Feature", "properties": { "name": "Казанцево", "time": "01.01.1730 01:01:01+01" }, "geometry": { "type": "Point", "coordinates": [ 77.681488, 55.075672 ] } },
{ "type": "Feature", "properties": { "name": "Амба", "time": "01.01.1731 01:01:01+01" }, "geometry": { "type": "Point", "coordinates": [ 82.772499, 55.437855 ] } },
{ "type": "Feature", "properties": { "name": "Цветники", "time": "01.01.1731 01:01:01+01" }, "geometry": { "type": "Point", "coordinates": [ 78.753174, 54.705029 ] } },
{ "type": "Feature", "properties": { "name": "Каменка", "time": "01.01.1734 01:01:01+01" }, "geometry": { "type": "Point", "coordinates": [ 83.0508282, 55.1002573 ] } },
{ "type": "Feature", "properties": { "name": "Ургун", "time": "01.01.1735 01:01:01+01" }, "geometry": { "type": "Point", "coordinates": [ 83.4276617, 54.5053508 ] } },
{ "type": "Feature", "properties": { "name": "Карасук", "time": "01.01.1737 01:01:01+01" }, "geometry": { "type": "Point", "coordinates": [ 78.032372, 53.73447 ] } },
{ "type": "Feature", "properties": { "name": "Осиново", "time": "01.01.1739 01:01:01+01" }, "geometry": { "type": "Point", "coordinates": [ 78.8406215, 55.4628833 ] } },
{ "type": "Feature", "properties": { "name": "Катково", "time": "01.01.1745 01:01:01+01" }, "geometry": { "type": "Point", "coordinates": [ 82.5393992, 55.1251275 ] } },
{ "type": "Feature", "properties": { "name": "Завьялово", "time": "01.01.1746 01:01:01+01" }, "geometry": { "type": "Point", "coordinates": [ 82.448395, 54.505348 ] } },
{ "type": "Feature", "properties": { "name": "Карган", "time": "01.01.1746 01:01:01+01" }, "geometry": { "type": "Point", "coordinates": [ 80.04892, 55.348675 ] } },
{ "type": "Feature", "properties": { "name": "Новососедово", "time": "01.01.1750 01:01:01+01" }, "geometry": { "type": "Point", "coordinates": [ 83.984161, 54.644833 ] } },
{ "type": "Feature", "properties": { "name": "Кусково", "time": "01.01.1750 01:01:01+01" }, "geometry": { "type": "Point", "coordinates": [ 84.627724, 55.209141 ] } },
{ "type": "Feature", "properties": { "name": "Шипицыно", "time": "01.01.1750 01:01:01+01" }, "geometry": { "type": "Point", "coordinates": [ 77.2889167, 56.0764185 ] } },
{ "type": "Feature", "properties": { "name": "Белово", "time": "01.01.1750 01:01:01+01" }, "geometry": { "type": "Point", "coordinates": [ 77.517822, 55.04546 ] } },
{ "type": "Feature", "properties": { "name": "Крутишка", "time": "01.01.1753 01:01:01+01" }, "geometry": { "type": "Point", "coordinates": [ 83.150841, 54.180782 ] } },
{ "type": "Feature", "properties": { "name": "Ярки", "time": "01.01.1756 01:01:01+01" }, "geometry": { "type": "Point", "coordinates": [ 83.276329, 54.14872 ] } },
{ "type": "Feature", "properties": { "name": "Елбаши", "time": "01.01.1756 01:01:01+01" }, "geometry": { "type": "Point", "coordinates": [ 83.597435, 54.736195 ] } },
{ "type": "Feature", "properties": { "name": "Романово", "time": "01.01.1756 01:01:01+01" }, "geometry": { "type": "Point", "coordinates": [ 83.46312, 54.194756 ] } },
{ "type": "Feature", "properties": { "name": "Старый Карапуз", "time": "01.01.1757 01:01:01+01" }, "geometry": { "type": "Point", "coordinates": [ 78.90519, 55.067001 ] } },
{ "type": "Feature", "properties": { "name": "Конево", "time": "01.01.1760 01:01:01+01" }, "geometry": { "type": "Point", "coordinates": [ 84.73214, 54.83606 ] } },
{ "type": "Feature", "properties": { "name": "Юрты", "time": "01.01.1761 01:01:01+01" }, "geometry": { "type": "Point", "coordinates": [ 84.809662, 54.853699 ] } },
{ "type": "Feature", "properties": { "name": "Спирино", "time": "01.01.1763 01:01:01+01" }, "geometry": { "type": "Point", "coordinates": [ 81.561874, 54.135445 ] } },
{ "type": "Feature", "properties": { "name": "Воробьёво", "time": "01.01.1765 01:01:01+01" }, "geometry": { "type": "Point", "coordinates": [ 82.568306, 55.311062 ] } },
{ "type": "Feature", "properties": { "name": "Орск", "time": "01.01.1766 01:01:01+01" }, "geometry": { "type": "Point", "coordinates": [ 83.43309, 55.208012 ] } },
{ "type": "Feature", "properties": { "name": "Осинцево", "time": "01.01.1766 01:01:01+01" }, "geometry": { "type": "Point", "coordinates": [ 77.905632, 55.40955 ] } },
{ "type": "Feature", "properties": { "name": "Омь", "time": "01.01.1766 01:01:01+01" }, "geometry": { "type": "Point", "coordinates": [ 77.786224, 55.424648 ] } },
{ "type": "Feature", "properties": { "name": "Красное", "time": "01.01.1766 01:01:01+01" }, "geometry": { "type": "Point", "coordinates": [ 76.813454, 55.536861 ] } },
{ "type": "Feature", "properties": { "name": "Большие Кулики", "time": "01.01.1767 01:01:01+01" }, "geometry": { "type": "Point", "coordinates": [ 77.71698, 56.28093 ] } },
{ "type": "Feature", "properties": { "name": "Шагалово", "time": "01.01.1770 01:01:01+01" }, "geometry": { "type": "Point", "coordinates": [ 82.218918, 54.91256 ] } },
{ "type": "Feature", "properties": { "name": "Усть-Тоя", "time": "01.01.1770 01:01:01+01" }, "geometry": { "type": "Point", "coordinates": [ 83.108345, 56.069923 ] } },
{ "type": "Feature", "properties": { "name": "Новый Тартас", "time": "01.01.1770 01:01:01+01" }, "geometry": { "type": "Point", "coordinates": [ 76.715065, 55.672279 ] } },
{ "type": "Feature", "properties": { "name": "Долгово", "time": "01.01.1770 01:01:01+01" }, "geometry": { "type": "Point", "coordinates": [ 84.453659, 55.440716 ] } },
{ "type": "Feature", "properties": { "name": "Сизево", "time": "01.01.1770 01:01:01+01" }, "geometry": { "type": "Point", "coordinates": [ 78.273209, 54.897358 ] } },
{ "type": "Feature", "properties": { "name": "Верх-Каргат", "time": "01.01.1770 01:01:01+01" }, "geometry": { "type": "Point", "coordinates": [ 79.091942, 54.79694 ] } },
{ "type": "Feature", "properties": { "name": "Тайлаково", "time": "01.01.1770 01:01:01+01" }, "geometry": { "type": "Point", "coordinates": [ 77.294281, 55.496334 ] } },
{ "type": "Feature", "properties": { "name": "Большеречье", "time": "01.01.1771 01:01:01+01" }, "geometry": { "type": "Point", "coordinates": [ 76.232895, 56.566631 ] } },
{ "type": "Feature", "properties": { "name": "Камышево", "time": "01.01.1772 01:01:01+01" }, "geometry": { "type": "Point", "coordinates": [ 76.027687, 55.623947 ] } },
{ "type": "Feature", "properties": { "name": "Устюжанино", "time": "01.01.1772 01:01:01+01" }, "geometry": { "type": "Point", "coordinates": [ 81.317752, 54.1851291 ] } },
{ "type": "Feature", "properties": { "name": "Земляная Заимка", "time": "01.01.1772 01:01:01+01" }, "geometry": { "type": "Point", "coordinates": [ 76.616425, 55.171658 ] } },
{ "type": "Feature", "properties": { "name": "Нижний Чулым", "time": "01.01.1773 01:01:01+01" }, "geometry": { "type": "Point", "coordinates": [ 78.933685, 54.610977 ] } },
{ "type": "Feature", "properties": { "name": "Верх-Ирмень", "time": "01.01.1775 01:01:01+01" }, "geometry": { "type": "Point", "coordinates": [ 82.244164, 54.566437 ] } },
{ "type": "Feature", "properties": { "name": "Барышево", "time": "01.01.1775 01:01:01+01" }, "geometry": { "type": "Point", "coordinates": [ 83.1882987, 54.9622004 ] } },
{ "type": "Feature", "properties": { "name": "Чернаки", "time": "01.01.1775 01:01:01+01" }, "geometry": { "type": "Point", "coordinates": [ 79.816261, 54.075924 ] } },
{ "type": "Feature", "properties": { "name": "Букреево Плёсо", "time": "01.01.1775 01:01:01+01" }, "geometry": { "type": "Point", "coordinates": [ 79.939095, 54.136028 ] } },
{ "type": "Feature", "properties": { "name": "Решёты", "time": "01.01.1775 01:01:01+01" }, "geometry": { "type": "Point", "coordinates": [ 80.222183, 54.220161 ] } },
{ "type": "Feature", "properties": { "name": "Малоирменка", "time": "01.01.1775 01:01:01+01" }, "geometry": { "type": "Point", "coordinates": [ 81.893097, 54.537918 ] } },
{ "type": "Feature", "properties": { "name": "Белоозёрный", "time": "01.01.1775 01:01:01+01" }, "geometry": { "type": "Point", "coordinates": [ 79.183792, 55.155941 ] } },
{ "type": "Feature", "properties": { "name": "Белоярка", "time": "01.01.1775 01:01:01+01" }, "geometry": { "type": "Point", "coordinates": [ 83.199577, 55.415203 ] } },
{ "type": "Feature", "properties": { "name": "Пайвино", "time": "01.01.1776 01:01:01+01" }, "geometry": { "type": "Point", "coordinates": [ 82.5528655, 54.8416541 ] } },
{ "type": "Feature", "properties": { "name": "Чупино", "time": "01.01.1776 01:01:01+01" }, "geometry": { "type": "Point", "coordinates": [ 84.161758, 54.399105 ] } },
{ "type": "Feature", "properties": { "name": "Карасёво", "time": "01.01.1776 01:01:01+01" }, "geometry": { "type": "Point", "coordinates": [ 82.999095, 54.1713361 ] } },
{ "type": "Feature", "properties": { "name": "Старососедово", "time": "01.01.1776 01:01:01+01" }, "geometry": { "type": "Point", "coordinates": [ 83.92234, 54.597141 ] } },
{ "type": "Feature", "properties": { "name": "Шипуново", "time": "01.01.1776 01:01:01+01" }, "geometry": { "type": "Point", "coordinates": [ 82.597343, 54.003105 ] } },
{ "type": "Feature", "properties": { "name": "Конёво", "time": "01.01.1776 01:01:01+01" }, "geometry": { "type": "Point", "coordinates": [ 79.003204, 54.234505 ] } },
{ "type": "Feature", "properties": { "name": "Бергуль", "time": "01.01.1776 01:01:01+01" }, "geometry": { "type": "Point", "coordinates": [ 78.258331, 55.607029 ] } },
{ "type": "Feature", "properties": { "name": "Новопесчаное", "time": "01.01.1776 01:01:01+01" }, "geometry": { "type": "Point", "coordinates": [ 76.697464, 54.840313 ] } },
{ "type": "Feature", "properties": { "name": "Старогутово", "time": "01.01.1776 01:01:01+01" }, "geometry": { "type": "Point", "coordinates": [ 84.61235, 54.742737 ] } },
{ "type": "Feature", "properties": { "name": "Карасево", "time": "01.01.1776 01:01:01+01" }, "geometry": { "type": "Point", "coordinates": [ 84.159157, 55.721443 ] } },
{ "type": "Feature", "properties": { "name": "Саламатово", "time": "01.01.1777 01:01:01+01" }, "geometry": { "type": "Point", "coordinates": [ 84.773354, 55.158062 ] } },
{ "type": "Feature", "properties": { "name": "Индерь", "time": "01.01.1777 01:01:01+01" }, "geometry": { "type": "Point", "coordinates": [ 79.974983, 54.546394 ] } },
{ "type": "Feature", "properties": { "name": "Малышево", "time": "01.01.1778 01:01:01+01" }, "geometry": { "type": "Point", "coordinates": [ 82.0530537, 53.7442819 ] } },
{ "type": "Feature", "properties": { "name": "Верх-Алеус", "time": "01.01.1779 01:01:01+01" }, "geometry": { "type": "Point", "coordinates": [ 81.2680748, 54.1756905 ] } },
{ "type": "Feature", "properties": { "name": "Лебедево", "time": "01.01.1780 01:01:01+01" }, "geometry": { "type": "Point", "coordinates": [ 84.344116, 54.917683 ] } },
{ "type": "Feature", "properties": { "name": "Старобибеево", "time": "01.01.1780 01:01:01+01" }, "geometry": { "type": "Point", "coordinates": [ 83.701424, 55.710899 ] } },
{ "type": "Feature", "properties": { "name": "Вороново", "time": "01.01.1780 01:01:01+01" }, "geometry": { "type": "Point", "coordinates": [ 83.7921813, 55.4788741 ] } },
{ "type": "Feature", "properties": { "name": "Аникино", "time": "01.01.1780 01:01:01+01" }, "geometry": { "type": "Point", "coordinates": [ 77.083511, 56.805183 ] } },
{ "type": "Feature", "properties": { "name": "Мамоново", "time": "01.01.1781 01:01:01+01" }, "geometry": { "type": "Point", "coordinates": [ 84.263512, 54.309383 ] } },
{ "type": "Feature", "properties": { "name": "Козловка", "time": "01.01.1783 01:01:01+01" }, "geometry": { "type": "Point", "coordinates": [ 76.969604, 55.608578 ] } },
{ "type": "Feature", "properties": { "name": "Мошнино", "time": "01.01.1785 01:01:01+01" }, "geometry": { "type": "Point", "coordinates": [ 83.630013, 55.232655 ] } },
{ "type": "Feature", "properties": { "name": "Бобровка", "time": "01.01.1786 01:01:01+01" }, "geometry": { "type": "Point", "coordinates": [ 82.135208, 53.92474 ] } },
{ "type": "Feature", "properties": { "name": "Плоское", "time": "01.01.1787 01:01:01+01" }, "geometry": { "type": "Point", "coordinates": [ 82.451378, 54.210903 ] } },
{ "type": "Feature", "properties": { "name": "Петени", "time": "01.01.1790 01:01:01+01" }, "geometry": { "type": "Point", "coordinates": [ 84.754677, 54.419987 ] } },
{ "type": "Feature", "properties": { "name": "Красный Яр", "time": "01.01.1790 01:01:01+01" }, "geometry": { "type": "Point", "coordinates": [ 83.136559, 55.511944 ] } },
{ "type": "Feature", "properties": { "name": "Комаровка", "time": "01.01.1790 01:01:01+01" }, "geometry": { "type": "Point", "coordinates": [ 77.1936093, 56.5732593 ] } },
{ "type": "Feature", "properties": { "name": "Таган", "time": "01.01.1790 01:01:01+01" }, "geometry": { "type": "Point", "coordinates": [ 77.292007, 54.954865 ] } },
{ "type": "Feature", "properties": { "name": "Кузнецово", "time": "01.01.1790 01:01:01+01" }, "geometry": { "type": "Point", "coordinates": [ 78.1199169, 55.9882041 ] } },
{ "type": "Feature", "properties": { "name": "Городище", "time": "01.01.1791 01:01:01+01" }, "geometry": { "type": "Point", "coordinates": [ 78.047958, 54.637531 ] } },
{ "type": "Feature", "properties": { "name": "Травное", "time": "01.01.1794 01:01:01+01" }, "geometry": { "type": "Point", "coordinates": [ 79.618347, 54.243736 ] } },
{ "type": "Feature", "properties": { "name": "Малая Тахта", "time": "01.01.1794 01:01:01+01" }, "geometry": { "type": "Point", "coordinates": [ 76.2525079, 54.5991987 ] } },
{ "type": "Feature", "properties": { "name": "Новолушниково", "time": "01.01.1796 01:01:01+01" }, "geometry": { "type": "Point", "coordinates": [ 84.593781, 54.518761 ] } },
{ "type": "Feature", "properties": { "name": "Малокрасноярка", "time": "01.01.1796 01:01:01+01" }, "geometry": { "type": "Point", "coordinates": [ 76.010971, 56.4645 ] } },
{ "type": "Feature", "properties": { "name": "Заречное", "time": "01.01.1797 01:01:01+01" }, "geometry": { "type": "Point", "coordinates": [ 84.621788, 55.155621 ] } },
{ "type": "Feature", "properties": { "name": "Новокаменево", "time": "01.01.1799 01:01:01+01" }, "geometry": { "type": "Point", "coordinates": [ 77.904564, 55.548458 ] } },
{ "type": "Feature", "properties": { "name": "Астродым", "time": "01.01.1800 01:01:01+01" }, "geometry": { "type": "Point", "coordinates": [ 77.76664, 53.644268 ] } },
{ "type": "Feature", "properties": { "name": "Томилово", "time": "01.01.1800 01:01:01+01" }, "geometry": { "type": "Point", "coordinates": [ 83.838936, 55.216259 ] } },
{ "type": "Feature", "properties": { "name": "Серебренниково", "time": "01.01.1800 01:01:01+01" }, "geometry": { "type": "Point", "coordinates": [ 84.43985, 54.364918 ] } },
{ "type": "Feature", "properties": { "name": "Бураново", "time": "01.01.1800 01:01:01+01" }, "geometry": { "type": "Point", "coordinates": [ 83.894394, 54.204353 ] } },
{ "type": "Feature", "properties": { "name": "Чащино", "time": "01.01.1800 01:01:01+01" }, "geometry": { "type": "Point", "coordinates": [ 82.95488, 54.05946 ] } },
{ "type": "Feature", "properties": { "name": "Доронино", "time": "01.01.1800 01:01:01+01" }, "geometry": { "type": "Point", "coordinates": [ 84.622658, 54.97813 ] } },
{ "type": "Feature", "properties": { "name": "Кармакла", "time": "01.01.1800 01:01:01+01" }, "geometry": { "type": "Point", "coordinates": [ 78.407921, 54.963764 ] } },
{ "type": "Feature", "properties": { "name": "Верх-Чик", "time": "01.01.1800 01:01:01+01" }, "geometry": { "type": "Point", "coordinates": [ 81.942657, 54.649696 ] } },
{ "type": "Feature", "properties": { "name": "Верх-Чекино", "time": "01.01.1800 01:01:01+01" }, "geometry": { "type": "Point", "coordinates": [ 76.508545, 56.688965 ] } },
{ "type": "Feature", "properties": { "name": "Тычкино", "time": "01.01.1800 01:01:01+01" }, "geometry": { "type": "Point", "coordinates": [ 77.606937, 56.1960349 ] } },
{ "type": "Feature", "properties": { "name": "Рождественка", "time": "01.01.1800 01:01:01+01" }, "geometry": { "type": "Point", "coordinates": [ 77.47673, 55.355267 ] } },
{ "type": "Feature", "properties": { "name": "Укроп", "time": "01.01.1800 01:01:01+01" }, "geometry": { "type": "Point", "coordinates": [ 83.7738178, 54.9002452 ] } },
{ "type": "Feature", "properties": { "name": "Желтоногино", "time": "01.01.1801 01:01:01+01" }, "geometry": { "type": "Point", "coordinates": [ 84.3012374, 54.8094392 ] } },
{ "type": "Feature", "properties": { "name": "Новоникольское", "time": "01.01.1801 01:01:01+01" }, "geometry": { "type": "Point", "coordinates": [ 77.679092, 56.222008 ] } },
{ "type": "Feature", "properties": { "name": "Озерки 6-е", "time": "01.01.1801 01:01:01+01" }, "geometry": { "type": "Point", "coordinates": [ 80.250786, 54.63929 ] } },
{ "type": "Feature", "properties": { "name": "Лебедевский", "time": "01.01.1802 01:01:01+01" }, "geometry": { "type": "Point", "coordinates": [ 80.150917, 55.230385 ] } },
{ "type": "Feature", "properties": { "name": "Кузьминка 1-я", "time": "01.01.1804 01:01:01+01" }, "geometry": { "type": "Point", "coordinates": [ 77.35849, 56.095222 ] } },
{ "type": "Feature", "properties": { "name": "Ерестная", "time": "01.01.1805 01:01:01+01" }, "geometry": { "type": "Point", "coordinates": [ 82.131348, 54.380486 ] } },
{ "type": "Feature", "properties": { "name": "Черновка", "time": "01.01.1805 01:01:01+01" }, "geometry": { "type": "Point", "coordinates": [ 79.99408, 54.1506914 ] } },
{ "type": "Feature", "properties": { "name": "Сургуты", "time": "01.01.1805 01:01:01+01" }, "geometry": { "type": "Point", "coordinates": [ 78.716995, 56.062714 ] } },
{ "type": "Feature", "properties": { "name": "Кожевниково", "time": "01.01.1805 01:01:01+01" }, "geometry": { "type": "Point", "coordinates": [ 78.2531084, 55.0135225 ] } },
{ "type": "Feature", "properties": { "name": "Верх-Ики", "time": "01.01.1806 01:01:01+01" }, "geometry": { "type": "Point", "coordinates": [ 84.1332887, 54.603889 ] } },
{ "type": "Feature", "properties": { "name": "Безменово", "time": "01.01.1806 01:01:01+01" }, "geometry": { "type": "Point", "coordinates": [ 83.388893, 54.076656 ] } },
{ "type": "Feature", "properties": { "name": "Кама", "time": "01.01.1806 01:01:01+01" }, "geometry": { "type": "Point", "coordinates": [ 77.710165, 55.8748982 ] } },
{ "type": "Feature", "properties": { "name": "Куляба", "time": "01.01.1806 01:01:01+01" }, "geometry": { "type": "Point", "coordinates": [ 77.188881, 56.521778 ] } },
{ "type": "Feature", "properties": { "name": "Бурсянино", "time": "01.01.1806 01:01:01+01" }, "geometry": { "type": "Point", "coordinates": [ 76.954742, 55.883488 ] } },
{ "type": "Feature", "properties": { "name": "Старая Скирла", "time": "01.01.1806 01:01:01+01" }, "geometry": { "type": "Point", "coordinates": [ 76.062889, 56.474876 ] } },
{ "type": "Feature", "properties": { "name": "Южино", "time": "01.01.1809 01:01:01+01" }, "geometry": { "type": "Point", "coordinates": [ 82.519745, 55.487583 ] } },
{ "type": "Feature", "properties": { "name": "Суздалка", "time": "01.01.1809 01:01:01+01" }, "geometry": { "type": "Point", "coordinates": [ 79.4518893, 54.5808575 ] } },
{ "type": "Feature", "properties": { "name": "Сарыбалык", "time": "01.01.1810 01:01:01+01" }, "geometry": { "type": "Point", "coordinates": [ 76.654106, 55.262402 ] } },
{ "type": "Feature", "properties": { "name": "Чёрный Мыс", "time": "01.01.1812 01:01:01+01" }, "geometry": { "type": "Point", "coordinates": [ 80.073952, 55.540298 ] } },
{ "type": "Feature", "properties": { "name": "Гражданцево", "time": "01.01.1812 01:01:01+01" }, "geometry": { "type": "Point", "coordinates": [ 78.165695, 56.357346 ] } },
{ "type": "Feature", "properties": { "name": "Зырянка", "time": "01.01.1813 01:01:01+01" }, "geometry": { "type": "Point", "coordinates": [ 81.388756, 54.574684 ] } },
{ "type": "Feature", "properties": { "name": "Вараксино", "time": "01.01.1813 01:01:01+01" }, "geometry": { "type": "Point", "coordinates": [ 76.522682, 56.510044 ] } },
{ "type": "Feature", "properties": { "name": "Лянино", "time": "01.01.1813 01:01:01+01" }, "geometry": { "type": "Point", "coordinates": [ 78.512711, 54.368759 ] } },
{ "type": "Feature", "properties": { "name": "Туруновка", "time": "01.01.1816 01:01:01+01" }, "geometry": { "type": "Point", "coordinates": [ 77.032089, 55.64209 ] } },
{ "type": "Feature", "properties": { "name": "Бородавкино", "time": "01.01.1820 01:01:01+01" }, "geometry": { "type": "Point", "coordinates": [ 82.908249, 54.488159 ] } },
{ "type": "Feature", "properties": { "name": "Ваганово", "time": "01.01.1821 01:01:01+01" }, "geometry": { "type": "Point", "coordinates": [ 78.3993629, 55.8714204 ] } },
{ "type": "Feature", "properties": { "name": "Согорное", "time": "01.01.1824 01:01:01+01" }, "geometry": { "type": "Point", "coordinates": [ 79.947029, 54.297451 ] } },
{ "type": "Feature", "properties": { "name": "Алексеевка", "time": "01.01.1824 01:01:01+01" }, "geometry": { "type": "Point", "coordinates": [ 82.5847296, 54.9343119 ] } },
{ "type": "Feature", "properties": { "name": "Егорьевское", "time": "01.01.1824 01:01:01+01" }, "geometry": { "type": "Point", "coordinates": [ 84.597885, 54.498913 ] } },
{ "type": "Feature", "properties": { "name": "Баклуши", "time": "01.01.1824 01:01:01+01" }, "geometry": { "type": "Point", "coordinates": [ 79.119644, 54.3788251 ] } },
{ "type": "Feature", "properties": { "name": "Рассказово", "time": "01.01.1825 01:01:01+01" }, "geometry": { "type": "Point", "coordinates": [ 77.922684, 53.667519 ] } },
{ "type": "Feature", "properties": { "name": "Новочекино", "time": "01.01.1825 01:01:01+01" }, "geometry": { "type": "Point", "coordinates": [ 76.419273, 56.515991 ] } },
{ "type": "Feature", "properties": { "name": "Квашнино", "time": "01.01.1825 01:01:01+01" }, "geometry": { "type": "Point", "coordinates": [ 77.837303, 55.010712 ] } },
{ "type": "Feature", "properties": { "name": "Берёзовка", "time": "01.01.1825 01:01:01+01" }, "geometry": { "type": "Point", "coordinates": [ 76.930824, 56.794441 ] } },
{ "type": "Feature", "properties": { "name": "Шибаки", "time": "01.01.1826 01:01:01+01" }, "geometry": { "type": "Point", "coordinates": [ 80.346615, 55.3194611 ] } },
{ "type": "Feature", "properties": { "name": "Беспаловка", "time": "01.01.1826 01:01:01+01" }, "geometry": { "type": "Point", "coordinates": [ 76.933937, 56.779259 ] } },
{ "type": "Feature", "properties": { "name": "Весёлая", "time": "01.01.1826 01:01:01+01" }, "geometry": { "type": "Point", "coordinates": [ 78.224602, 56.606434 ] } },
{ "type": "Feature", "properties": { "name": "Барлакуль", "time": "01.01.1826 01:01:01+01" }, "geometry": { "type": "Point", "coordinates": [ 78.668205, 54.306973 ] } },
{ "type": "Feature", "properties": { "name": "Чернокурья", "time": "01.01.1826 01:01:01+01" }, "geometry": { "type": "Point", "coordinates": [ 78.374512, 53.849899 ] } },
{ "type": "Feature", "properties": { "name": "Вьюны", "time": "01.01.1827 01:01:01+01" }, "geometry": { "type": "Point", "coordinates": [ 82.917862, 55.516602 ] } },
{ "type": "Feature", "properties": { "name": "Богатиха", "time": "01.01.1828 01:01:01+01" }, "geometry": { "type": "Point", "coordinates": [ 77.822441, 54.711185 ] } },
{ "type": "Feature", "properties": { "name": "Черновка", "time": "01.01.1829 01:01:01+01" }, "geometry": { "type": "Point", "coordinates": [ 76.459496, 56.777809 ] } },
{ "type": "Feature", "properties": { "name": "Волчанка", "time": "01.01.1829 01:01:01+01" }, "geometry": { "type": "Point", "coordinates": [ 79.401978, 54.431187 ] } },
{ "type": "Feature", "properties": { "name": "Чебаки", "time": "01.01.1829 01:01:01+01" }, "geometry": { "type": "Point", "coordinates": [ 78.547653, 56.324432 ] } },
{ "type": "Feature", "properties": { "name": "Веселовское", "time": "01.01.1830 01:01:01+01" }, "geometry": { "type": "Point", "coordinates": [ 78.7050286, 53.99081 ] } },
{ "type": "Feature", "properties": { "name": "Благодатное", "time": "01.01.1831 01:01:01+01" }, "geometry": { "type": "Point", "coordinates": [ 78.050858, 53.844585 ] } },
{ "type": "Feature", "properties": { "name": "Вятка", "time": "01.01.1833 01:01:01+01" }, "geometry": { "type": "Point", "coordinates": [ 76.714569, 56.545013 ] } },
{ "type": "Feature", "properties": { "name": "Лобино", "time": "01.01.1834 01:01:01+01" }, "geometry": { "type": "Point", "coordinates": [ 79.027725, 53.862038 ] } },
{ "type": "Feature", "properties": { "name": "Патрушево", "time": "01.01.1835 01:01:01+01" }, "geometry": { "type": "Point", "coordinates": [ 78.45153, 55.575287 ] } },
{ "type": "Feature", "properties": { "name": "Ярково", "time": "01.01.1836 01:01:01+01" }, "geometry": { "type": "Point", "coordinates": [ 82.6035041, 54.8062688 ] } },
{ "type": "Feature", "properties": { "name": "Ярково", "time": "01.01.1836 01:01:01+01" }, "geometry": { "type": "Point", "coordinates": [ 77.818817, 55.649158 ] } },
{ "type": "Feature", "properties": { "name": "Таганово", "time": "01.01.1836 01:01:01+01" }, "geometry": { "type": "Point", "coordinates": [ 77.6927947, 55.6804644 ] } },
{ "type": "Feature", "properties": { "name": "Межовка", "time": "01.01.1836 01:01:01+01" }, "geometry": { "type": "Point", "coordinates": [ 77.738838, 56.643597 ] } },
{ "type": "Feature", "properties": { "name": "Озёрное-Титово", "time": "01.01.1836 01:01:01+01" }, "geometry": { "type": "Point", "coordinates": [ 77.993584, 53.753647 ] } },
{ "type": "Feature", "properties": { "name": "Алексеевка", "time": "01.01.1838 01:01:01+01" }, "geometry": { "type": "Point", "coordinates": [ 77.044189, 56.581299 ] } },
{ "type": "Feature", "properties": { "name": "Палецкое", "time": "01.01.1840 01:01:01+01" }, "geometry": { "type": "Point", "coordinates": [ 78.143257, 54.117863 ] } },
{ "type": "Feature", "properties": { "name": "Таскаево", "time": "01.01.1844 01:01:01+01" }, "geometry": { "type": "Point", "coordinates": [ 78.600731, 55.094349 ] } },
{ "type": "Feature", "properties": { "name": "Алабуга", "time": "01.01.1845 01:01:01+01" }, "geometry": { "type": "Point", "coordinates": [ 80.465996, 54.670513 ] } },
{ "type": "Feature", "properties": { "name": "Утянка", "time": "01.01.1845 01:01:01+01" }, "geometry": { "type": "Point", "coordinates": [ 79.778992, 54.712242 ] } },
{ "type": "Feature", "properties": { "name": "Малая Скирла", "time": "01.01.1846 01:01:01+01" }, "geometry": { "type": "Point", "coordinates": [ 76.086357, 56.481216 ] } },
{ "type": "Feature", "properties": { "name": "Кузнецовка", "time": "01.01.1846 01:01:01+01" }, "geometry": { "type": "Point", "coordinates": [ 77.552986, 53.911385 ] } },
{ "type": "Feature", "properties": { "name": "Усть-Тандовка", "time": "01.01.1847 01:01:01+01" }, "geometry": { "type": "Point", "coordinates": [ 78.080795, 55.006767 ] } },
{ "type": "Feature", "properties": { "name": "Агачаулово", "time": "01.01.1848 01:01:01+01" }, "geometry": { "type": "Point", "coordinates": [ 76.665619, 56.54158 ] } },
{ "type": "Feature", "properties": { "name": "Половинное", "time": "01.01.1849 01:01:01+01" }, "geometry": { "type": "Point", "coordinates": [ 77.860687, 55.236923 ] } },
{ "type": "Feature", "properties": { "name": "Ургуль", "time": "01.01.1850 01:01:01+01" }, "geometry": { "type": "Point", "coordinates": [ 78.083176, 56.695309 ] } },
{ "type": "Feature", "properties": { "name": "Заячье", "time": "01.01.1851 01:01:01+01" }, "geometry": { "type": "Point", "coordinates": [ 76.48558, 54.978241 ] } },
{ "type": "Feature", "properties": { "name": "Сергеевка", "time": "01.10.1851 01:01:01+01" }, "geometry": { "type": "Point", "coordinates": [ 76.206795, 56.454567 ] } },
{ "type": "Feature", "properties": { "name": "Гжатск", "time": "01.01.1852 01:01:01+01" }, "geometry": { "type": "Point", "coordinates": [ 78.179413, 55.702034 ] } },
{ "type": "Feature", "properties": { "name": "Новый Майзас", "time": "01.01.1854 01:01:01+01" }, "geometry": { "type": "Point", "coordinates": [ 76.954453, 56.571964 ] } },
{ "type": "Feature", "properties": { "name": "Теренгуль", "time": "01.01.1854 01:01:01+01" }, "geometry": { "type": "Point", "coordinates": [ 77.160271, 53.827644 ] } },
{ "type": "Feature", "properties": { "name": "Гербаево", "time": "01.01.1855 01:01:01+01" }, "geometry": { "type": "Point", "coordinates": [ 79.415321, 53.985466 ] } },
{ "type": "Feature", "properties": { "name": "Большой Изырак", "time": "01.01.1855 01:01:01+01" }, "geometry": { "type": "Point", "coordinates": [ 84.270218, 54.514095 ] } },
{ "type": "Feature", "properties": { "name": "Садовка", "time": "01.01.1855 01:01:01+01" }, "geometry": { "type": "Point", "coordinates": [ 76.418991, 56.473793 ] } },
{ "type": "Feature", "properties": { "name": "Шмаковка", "time": "01.01.1855 01:01:01+01" }, "geometry": { "type": "Point", "coordinates": [ 76.8763936, 56.5577742 ] } },
{ "type": "Feature", "properties": { "name": "Щеглово", "time": "01.01.1855 01:01:01+01" }, "geometry": { "type": "Point", "coordinates": [ 76.564423, 55.349564 ] } },
{ "type": "Feature", "properties": { "name": "Александровка", "time": "01.01.1856 01:01:01+01" }, "geometry": { "type": "Point", "coordinates": [ 84.364975, 54.435261 ] } },
{ "type": "Feature", "properties": { "name": "Пахомово", "time": "01.01.1856 01:01:01+01" }, "geometry": { "type": "Point", "coordinates": [ 76.6236171, 56.4291937 ] } },
{ "type": "Feature", "properties": { "name": "Георгиевка", "time": "01.01.1856 01:01:01+01" }, "geometry": { "type": "Point", "coordinates": [ 77.092056, 56.006912 ] } },
{ "type": "Feature", "properties": { "name": "Новогорносталево", "time": "01.01.1856 01:01:01+01" }, "geometry": { "type": "Point", "coordinates": [ 78.923653, 54.378296 ] } },
{ "type": "Feature", "properties": { "name": "Бочкаревка", "time": "01.01.1857 01:01:01+01" }, "geometry": { "type": "Point", "coordinates": [ 76.865082, 56.933842 ] } },
{ "type": "Feature", "properties": { "name": "Старая Преображенка", "time": "01.01.1860 01:01:01+01" }, "geometry": { "type": "Point", "coordinates": [ 77.047523, 55.50111 ] } },
{ "type": "Feature", "properties": { "name": "Старая Чебула", "time": "01.01.1860 01:01:01+01" }, "geometry": { "type": "Point", "coordinates": [ 83.9770854, 55.5820345 ] } },
{ "type": "Feature", "properties": { "name": "Орловка", "time": "01.01.1861 01:01:01+01" }, "geometry": { "type": "Point", "coordinates": [ 76.3347846, 56.939608 ] } },
{ "type": "Feature", "properties": { "name": "Новоключи", "time": "01.01.1862 01:01:01+01" }, "geometry": { "type": "Point", "coordinates": [ 78.0027145, 54.2441405 ] } },
{ "type": "Feature", "properties": { "name": "Горбуново", "time": "01.01.1862 01:01:01+01" }, "geometry": { "type": "Point", "coordinates": [ 78.720894, 55.512699 ] } },
{ "type": "Feature", "properties": { "name": "Батурино", "time": "01.01.1863 01:01:01+01" }, "geometry": { "type": "Point", "coordinates": [ 82.5956407, 55.8892028 ] } },
{ "type": "Feature", "properties": { "name": "Шипицыно", "time": "01.01.1863 01:01:01+01" }, "geometry": { "type": "Point", "coordinates": [ 76.855186, 54.522568 ] } },
{ "type": "Feature", "properties": { "name": "Кандаурово", "time": "01.01.1864 01:01:01+01" }, "geometry": { "type": "Point", "coordinates": [ 83.194389, 55.675274 ] } },
{ "type": "Feature", "properties": { "name": "Комарье", "time": "01.01.1864 01:01:01+01" }, "geometry": { "type": "Point", "coordinates": [ 80.217545, 54.420795 ] } },
{ "type": "Feature", "properties": { "name": "Камень", "time": "01.01.1865 01:01:01+01" }, "geometry": { "type": "Point", "coordinates": [ 83.66938, 55.626583 ] } },
{ "type": "Feature", "properties": { "name": "Киряково", "time": "01.01.1865 01:01:01+01" }, "geometry": { "type": "Point", "coordinates": [ 84.261978, 55.812714 ] } },
{ "type": "Feature", "properties": { "name": "Комендантка", "time": "01.01.1865 01:01:01+01" }, "geometry": { "type": "Point", "coordinates": [ 79.627762, 54.603741 ] } },
{ "type": "Feature", "properties": { "name": "Середино", "time": "01.01.1866 01:01:01+01" }, "geometry": { "type": "Point", "coordinates": [ 83.081398, 55.797413 ] } },
{ "type": "Feature", "properties": { "name": "Гусиный Брод", "time": "01.01.1866 01:01:01+01" }, "geometry": { "type": "Point", "coordinates": [ 83.2388845, 55.0658463 ] } },
{ "type": "Feature", "properties": { "name": "Новоспасск", "time": "01.01.1866 01:01:01+01" }, "geometry": { "type": "Point", "coordinates": [ 78.186302, 55.114559 ] } },
{ "type": "Feature", "properties": { "name": "Алексеевка", "time": "01.01.1866 01:01:01+01" }, "geometry": { "type": "Point", "coordinates": [ 81.145386, 54.509335 ] } },
{ "type": "Feature", "properties": { "name": "Чуваши", "time": "01.01.1866 01:01:01+01" }, "geometry": { "type": "Point", "coordinates": [ 78.816666, 56.398643 ] } },
{ "type": "Feature", "properties": { "name": "Булатово", "time": "01.01.1867 01:01:01+01" }, "geometry": { "type": "Point", "coordinates": [ 77.8016855, 55.5205034 ] } },
{ "type": "Feature", "properties": { "name": "Большая Чёрная", "time": "01.01.1869 01:01:01+01" }, "geometry": { "type": "Point", "coordinates": [ 84.421837, 55.964317 ] } },
{ "type": "Feature", "properties": { "name": "Алексеевка", "time": "01.01.1869 01:01:01+01" }, "geometry": { "type": "Point", "coordinates": [ 77.730072, 56.315224 ] } },
{ "type": "Feature", "properties": { "name": "Зубково", "time": "01.01.1870 01:01:01+01" }, "geometry": { "type": "Point", "coordinates": [ 78.660782, 53.778336 ] } },
{ "type": "Feature", "properties": { "name": "Новоеланка", "time": "01.01.1870 01:01:01+01" }, "geometry": { "type": "Point", "coordinates": [ 77.136421, 56.843208 ] } },
{ "type": "Feature", "properties": { "name": "Гавриловка", "time": "01.01.1870 01:01:01+01" }, "geometry": { "type": "Point", "coordinates": [ 76.510399, 56.656994 ] } },
{ "type": "Feature", "properties": { "name": "Старый Майзас", "time": "01.01.1870 01:01:01+01" }, "geometry": { "type": "Point", "coordinates": [ 76.859398, 56.592129 ] } },
{ "type": "Feature", "properties": { "name": "Паутово", "time": "01.01.1871 01:01:01+01" }, "geometry": { "type": "Point", "coordinates": [ 82.758049, 55.544334 ] } },
{ "type": "Feature", "properties": { "name": "Сарыбалык", "time": "01.01.1871 01:01:01+01" }, "geometry": { "type": "Point", "coordinates": [ 78.76664, 54.830956 ] } },
{ "type": "Feature", "properties": { "name": "Ужаниха", "time": "01.01.1874 01:01:01+01" }, "geometry": { "type": "Point", "coordinates": [ 81.035873, 54.676704 ] } },
{ "type": "Feature", "properties": { "name": "Новоярково", "time": "01.01.1874 01:01:01+01" }, "geometry": { "type": "Point", "coordinates": [ 78.086517, 54.927784 ] } },
{ "type": "Feature", "properties": { "name": "Чаны", "time": "01.01.1875 01:01:01+01" }, "geometry": { "type": "Point", "coordinates": [ 76.759605, 55.308064 ] } },
{ "type": "Feature", "properties": { "name": "Холодное", "time": "01.01.1875 01:01:01+01" }, "geometry": { "type": "Point", "coordinates": [ 82.583435, 54.115444 ] } },
{ "type": "Feature", "properties": { "name": "Валовая", "time": "01.01.1875 01:01:01+01" }, "geometry": { "type": "Point", "coordinates": [ 84.2467798, 54.6276751 ] } },
{ "type": "Feature", "properties": { "name": "Сартаково", "time": "01.01.1876 01:01:01+01" }, "geometry": { "type": "Point", "coordinates": [ 82.011536, 54.990059 ] } },
{ "type": "Feature", "properties": { "name": "Каинская Заимка", "time": "01.01.1876 01:01:01+01" }, "geometry": { "type": "Point", "coordinates": [ 83.1448232, 54.871989 ] } },
{ "type": "Feature", "properties": { "name": "Пихтовка", "time": "01.01.1876 01:01:01+01" }, "geometry": { "type": "Point", "coordinates": [ 82.711868, 55.989109 ] } },
{ "type": "Feature", "properties": { "name": "Чикман", "time": "01.01.1876 01:01:01+01" }, "geometry": { "type": "Point", "coordinates": [ 81.339096, 54.775677 ] } },
{ "type": "Feature", "properties": { "name": "Усть-Ламенка", "time": "01.01.1876 01:01:01+01" }, "geometry": { "type": "Point", "coordinates": [ 77.278984, 55.675861 ] } },
{ "type": "Feature", "properties": { "name": "Сарыбалык", "time": "01.01.1876 01:01:01+01" }, "geometry": { "type": "Point", "coordinates": [ 79.952744, 54.750668 ] } },
{ "type": "Feature", "properties": { "name": "Шигаево", "time": "01.01.1877 01:01:01+01" }, "geometry": { "type": "Point", "coordinates": [ 82.319519, 54.248936 ] } },
{ "type": "Feature", "properties": { "name": "Сарыкамышка", "time": "01.01.1879 01:01:01+01" }, "geometry": { "type": "Point", "coordinates": [ 80.572731, 54.740864 ] } },
{ "type": "Feature", "properties": { "name": "Зубари", "time": "01.01.1880 01:01:01+01" }, "geometry": { "type": "Point", "coordinates": [ 80.629318, 54.939266 ] } },
{ "type": "Feature", "properties": { "name": "Чаячье", "time": "01.01.1880 01:01:01+01" }, "geometry": { "type": "Point", "coordinates": [ 76.333954, 54.701122 ] } },
{ "type": "Feature", "properties": { "name": "Новоалександровка", "time": "01.01.1880 01:01:01+01" }, "geometry": { "type": "Point", "coordinates": [ 77.346085, 55.120167 ] } },
{ "type": "Feature", "properties": { "name": "Чекиаул", "time": "01.01.1880 01:01:01+01" }, "geometry": { "type": "Point", "coordinates": [ 76.460922, 56.482903 ] } },
{ "type": "Feature", "properties": { "name": "Мальчиха", "time": "01.01.1881 01:01:01+01" }, "geometry": { "type": "Point", "coordinates": [ 82.555786, 55.848804 ] } },
{ "type": "Feature", "properties": { "name": "Базово", "time": "02.01.1881 01:01:01+01" }, "geometry": { "type": "Point", "coordinates": [ 81.230156, 54.536777 ] } },
{ "type": "Feature", "properties": { "name": "Александро-Невское", "time": "01.01.1882 01:01:01+01" }, "geometry": { "type": "Point", "coordinates": [ 79.176933, 55.261948 ] } },
{ "type": "Feature", "properties": { "name": "Болотное", "time": "01.01.1884 01:01:01+01" }, "geometry": { "type": "Point", "coordinates": [ 84.388557, 55.6715707 ] } },
{ "type": "Feature", "properties": { "name": "Владимировка", "time": "01.01.1884 01:01:01+01" }, "geometry": { "type": "Point", "coordinates": [ 83.999741, 54.963802 ] } },
{ "type": "Feature", "properties": { "name": "Вдовино", "time": "01.01.1884 01:01:01+01" }, "geometry": { "type": "Point", "coordinates": [ 82.0880142, 56.0509807 ] } },
{ "type": "Feature", "properties": { "name": "Новоникольск", "time": "01.01.1884 01:01:01+01" }, "geometry": { "type": "Point", "coordinates": [ 75.984055, 55.71666 ] } },
{ "type": "Feature", "properties": { "name": "Куриловка", "time": "01.01.1885 01:01:01+01" }, "geometry": { "type": "Point", "coordinates": [ 82.764656, 54.214832 ] } },
{ "type": "Feature", "properties": { "name": "Новый Баганёнок", "time": "01.01.1885 01:01:01+01" }, "geometry": { "type": "Point", "coordinates": [ 78.726402, 53.868198 ] } },
{ "type": "Feature", "properties": { "name": "Ирбизино", "time": "01.01.1885 01:01:01+01" }, "geometry": { "type": "Point", "coordinates": [ 78.47216, 54.040543 ] } },
{ "type": "Feature", "properties": { "name": "Третьяковский", "time": "01.01.1886 01:01:01+01" }, "geometry": { "type": "Point", "coordinates": [ 80.312057, 55.427532 ] } },
{ "type": "Feature", "properties": { "name": "Казанак", "time": "01.01.1886 01:01:01+01" }, "geometry": { "type": "Point", "coordinates": [ 79.160789, 54.183975 ] } },
{ "type": "Feature", "properties": { "name": "Гавриловка", "time": "01.01.1886 01:01:01+01" }, "geometry": { "type": "Point", "coordinates": [ 80.1456975, 55.1635131 ] } },
{ "type": "Feature", "properties": { "name": "Ильинка", "time": "01.01.1886 01:01:01+01" }, "geometry": { "type": "Point", "coordinates": [ 79.233513, 54.52475 ] } },
{ "type": "Feature", "properties": { "name": "Лотошное", "time": "01.01.1887 01:01:01+01" }, "geometry": { "type": "Point", "coordinates": [ 78.78418, 54.13763 ] } },
{ "type": "Feature", "properties": { "name": "Малая Ужаниха", "time": "01.01.1887 01:01:01+01" }, "geometry": { "type": "Point", "coordinates": [ 81.094566, 54.741592 ] } },
{ "type": "Feature", "properties": { "name": "Верх-Урюм", "time": "01.01.1887 01:01:01+01" }, "geometry": { "type": "Point", "coordinates": [ 78.587952, 54.492649 ] } },
{ "type": "Feature", "properties": { "name": "Турнаево", "time": "01.01.1888 01:01:01+01" }, "geometry": { "type": "Point", "coordinates": [ 84.51368, 55.775116 ] } },
{ "type": "Feature", "properties": { "name": "Ичкала", "time": "01.01.1888 01:01:01+01" }, "geometry": { "type": "Point", "coordinates": [ 78.582069, 56.62888 ] } },
{ "type": "Feature", "properties": { "name": "Маршанское", "time": "01.01.1889 01:01:01+01" }, "geometry": { "type": "Point", "coordinates": [ 79.863052, 55.038452 ] } },
{ "type": "Feature", "properties": { "name": "Хорошее", "time": "01.01.1889 01:01:01+01" }, "geometry": { "type": "Point", "coordinates": [ 78.504364, 53.5896 ] } },
{ "type": "Feature", "properties": { "name": "Стеклянное", "time": "01.01.1889 01:01:01+01" }, "geometry": { "type": "Point", "coordinates": [ 77.142822, 54.355637 ] } },
{ "type": "Feature", "properties": { "name": "Малиновка", "time": "01.01.1890 01:01:01+01" }, "geometry": { "type": "Point", "coordinates": [ 83.855446, 54.66098 ] } },
{ "type": "Feature", "properties": { "name": "Новолуговое", "time": "01.01.1890 01:01:01+01" }, "geometry": { "type": "Point", "coordinates": [ 83.1208214, 54.9785707 ] } },
{ "type": "Feature", "properties": { "name": "Новомихайловка", "time": "01.01.1890 01:01:01+01" }, "geometry": { "type": "Point", "coordinates": [ 81.954414, 55.205528 ] } },
{ "type": "Feature", "properties": { "name": "Колбаса", "time": "01.01.1890 01:01:01+01" }, "geometry": { "type": "Point", "coordinates": [ 76.699158, 56.889893 ] } },
{ "type": "Feature", "properties": { "name": "Новорозино", "time": "01.01.1890 01:01:01+01" }, "geometry": { "type": "Point", "coordinates": [ 77.781166, 54.649052 ] } },
{ "type": "Feature", "properties": { "name": "Новый Шарап", "time": "01.01.1891 01:01:01+01" }, "geometry": { "type": "Point", "coordinates": [ 82.036324, 54.410988 ] } },
{ "type": "Feature", "properties": { "name": "Маюрово", "time": "01.01.1891 01:01:01+01" }, "geometry": { "type": "Point", "coordinates": [ 82.426704, 54.31744 ] } },
{ "type": "Feature", "properties": { "name": "Мохнатый Лог", "time": "01.01.1891 01:01:01+01" }, "geometry": { "type": "Point", "coordinates": [ 79.587837, 54.023464 ] } },
{ "type": "Feature", "properties": { "name": "Петропавловка", "time": "01.01.1891 01:01:01+01" }, "geometry": { "type": "Point", "coordinates": [ 79.647827, 54.016838 ] } },
{ "type": "Feature", "properties": { "name": "Сидоровка", "time": "01.01.1891 01:01:01+01" }, "geometry": { "type": "Point", "coordinates": [ 82.408691, 55.444237 ] } },
{ "type": "Feature", "properties": { "name": "Большеникольское", "time": "01.01.1891 01:01:01+01" }, "geometry": { "type": "Point", "coordinates": [ 81.468613, 54.602081 ] } },
{ "type": "Feature", "properties": { "name": "Покровское", "time": "01.01.1891 01:01:01+01" }, "geometry": { "type": "Point", "coordinates": [ 81.595726, 54.639557 ] } },
{ "type": "Feature", "properties": { "name": "Крутиха", "time": "01.01.1891 01:01:01+01" }, "geometry": { "type": "Point", "coordinates": [ 77.165085, 56.817802 ] } },
{ "type": "Feature", "properties": { "name": "Баган", "time": "01.01.1891 01:01:01+01" }, "geometry": { "type": "Point", "coordinates": [ 79.7743, 54.511185 ] } },
{ "type": "Feature", "properties": { "name": "Белое", "time": "01.01.1891 01:01:01+01" }, "geometry": { "type": "Point", "coordinates": [ 78.471031, 53.935505 ] } },
{ "type": "Feature", "properties": { "name": "Нижнечеремошное", "time": "01.01.1892 01:01:01+01" }, "geometry": { "type": "Point", "coordinates": [ 78.897125, 53.95768 ] } },
{ "type": "Feature", "properties": { "name": "Новосибирск", "time": "01.01.1893 01:01:01+01" }, "geometry": { "type": "Point", "coordinates": [ 82.9226887, 55.0288307 ] } },
{ "type": "Feature", "properties": { "name": "Сузун", "time": "01.01.1893 01:01:01+01" }, "geometry": { "type": "Point", "coordinates": [ 82.316231, 53.783924 ] } },
{ "type": "Feature", "properties": { "name": "Линёво", "time": "01.01.1893 01:01:01+01" }, "geometry": { "type": "Point", "coordinates": [ 83.379074, 54.456459 ] } },
{ "type": "Feature", "properties": { "name": "Барабинск", "time": "01.01.1893 01:01:01+01" }, "geometry": { "type": "Point", "coordinates": [ 78.350348, 55.3567611 ] } },
{ "type": "Feature", "properties": { "name": "Чулым", "time": "01.01.1893 01:01:01+01" }, "geometry": { "type": "Point", "coordinates": [ 80.970459, 55.09 ] } },
{ "type": "Feature", "properties": { "name": "Маслянино", "time": "01.01.1893 01:01:01+01" }, "geometry": { "type": "Point", "coordinates": [ 84.21067, 54.345501 ] } },
{ "type": "Feature", "properties": { "name": "Купино", "time": "01.01.1893 01:01:01+01" }, "geometry": { "type": "Point", "coordinates": [ 77.30854, 54.364929 ] } },
{ "type": "Feature", "properties": { "name": "Орехов Лог", "time": "01.01.1893 01:01:01+01" }, "geometry": { "type": "Point", "coordinates": [ 79.390999, 53.840603 ] } },
{ "type": "Feature", "properties": { "name": "Чистоозёрное", "time": "01.01.1893 01:01:01+01" }, "geometry": { "type": "Point", "coordinates": [ 76.582344, 54.712204 ] } },
{ "type": "Feature", "properties": { "name": "Горный", "time": "01.01.1893 01:01:01+01" }, "geometry": { "type": "Point", "coordinates": [ 83.878761, 55.118286 ] } },
{ "type": "Feature", "properties": { "name": "Северное", "time": "01.01.1893 01:01:01+01" }, "geometry": { "type": "Point", "coordinates": [ 78.3649455, 56.3500996 ] } },
{ "type": "Feature", "properties": { "name": "Новониколаевка", "time": "01.01.1893 01:01:01+01" }, "geometry": { "type": "Point", "coordinates": [ 77.829422, 54.796612 ] } },
{ "type": "Feature", "properties": { "name": "Венгерово", "time": "01.01.1893 01:01:01+01" }, "geometry": { "type": "Point", "coordinates": [ 76.739029, 55.681034 ] } },
{ "type": "Feature", "properties": { "name": "Кыштовка", "time": "01.01.1893 01:01:01+01" }, "geometry": { "type": "Point", "coordinates": [ 76.624588, 56.55957 ] } },
{ "type": "Feature", "properties": { "name": "Чернаковка", "time": "01.01.1893 01:01:01+01" }, "geometry": { "type": "Point", "coordinates": [ 77.258224, 56.572678 ] } },
{ "type": "Feature", "properties": { "name": "Камышинка", "time": "01.01.1893 01:01:01+01" }, "geometry": { "type": "Point", "coordinates": [ 76.861397, 56.726513 ] } },
{ "type": "Feature", "properties": { "name": "Жирновка", "time": "01.01.1893 01:01:01+01" }, "geometry": { "type": "Point", "coordinates": [ 81.9808493, 56.0468484 ] } },
{ "type": "Feature", "properties": { "name": "Колмаково", "time": "01.01.1893 01:01:01+01" }, "geometry": { "type": "Point", "coordinates": [ 79.275902, 55.434338 ] } },
{ "type": "Feature", "properties": { "name": "Коровинка", "time": "01.01.1893 01:01:01+01" }, "geometry": { "type": "Point", "coordinates": [ 76.764854, 56.54216 ] } },
{ "type": "Feature", "properties": { "name": "Кольцово", "time": "01.01.1893 01:01:01+01" }, "geometry": { "type": "Point", "coordinates": [ 83.187139, 54.9367736 ] } },
{ "type": "Feature", "properties": { "name": "Ирба", "time": "01.01.1893 01:01:01+01" }, "geometry": { "type": "Point", "coordinates": [ 84.3010072, 55.3921889 ] } },
{ "type": "Feature", "properties": { "name": "Пензино", "time": "01.01.1894 01:01:01+01" }, "geometry": { "type": "Point", "coordinates": [ 78.813477, 55.287228 ] } },
{ "type": "Feature", "properties": { "name": "Ядкан", "time": "01.01.1894 01:01:01+01" }, "geometry": { "type": "Point", "coordinates": [ 76.515045, 56.733883 ] } },
{ "type": "Feature", "properties": { "name": "Ивановка", "time": "01.01.1894 01:01:01+01" }, "geometry": { "type": "Point", "coordinates": [ 76.874252, 56.72411 ] } },
{ "type": "Feature", "properties": { "name": "Полтавка", "time": "01.01.1894 01:01:01+01" }, "geometry": { "type": "Point", "coordinates": [ 76.470329, 55.125957 ] } },
{ "type": "Feature", "properties": { "name": "Бибиха", "time": "01.01.1894 01:01:01+01" }, "geometry": { "type": "Point", "coordinates": [ 82.865425, 55.325504 ] } },
{ "type": "Feature", "properties": { "name": "Татарск", "time": "01.01.1895 01:01:01+01" }, "geometry": { "type": "Point", "coordinates": [ 75.962196, 55.216961 ] } },
{ "type": "Feature", "properties": { "name": "Ордынское", "time": "01.01.1895 01:01:01+01" }, "geometry": { "type": "Point", "coordinates": [ 81.904022, 54.366676 ] } },
{ "type": "Feature", "properties": { "name": "Кочки", "time": "01.01.1895 01:01:01+01" }, "geometry": { "type": "Point", "coordinates": [ 80.487846, 54.334766 ] } },
{ "type": "Feature", "properties": { "name": "Здвинск", "time": "01.01.1895 01:01:01+01" }, "geometry": { "type": "Point", "coordinates": [ 78.667595, 54.703968 ] } },
{ "type": "Feature", "properties": { "name": "Седова Заимка", "time": "01.01.1895 01:01:01+01" }, "geometry": { "type": "Point", "coordinates": [ 82.84922, 55.364975 ] } },
{ "type": "Feature", "properties": { "name": "Константиновка", "time": "01.01.1895 01:01:01+01" }, "geometry": { "type": "Point", "coordinates": [ 78.802719, 55.637108 ] } },
{ "type": "Feature", "properties": { "name": "Зенкино", "time": "01.01.1895 01:01:01+01" }, "geometry": { "type": "Point", "coordinates": [ 77.120537, 55.024097 ] } },
{ "type": "Feature", "properties": { "name": "Троицкое", "time": "01.01.1895 01:01:01+01" }, "geometry": { "type": "Point", "coordinates": [ 76.719742, 54.94886 ] } },
{ "type": "Feature", "properties": { "name": "Кожурла", "time": "01.01.1896 01:01:01+01" }, "geometry": { "type": "Point", "coordinates": [ 79.032433, 55.335751 ] } },
{ "type": "Feature", "properties": { "name": "Кабинетное", "time": "01.01.1896 01:01:01+01" }, "geometry": { "type": "Point", "coordinates": [ 81.2963473, 55.0937887 ] } },
{ "type": "Feature", "properties": { "name": "Красный Яр", "time": "01.01.1896 01:01:01+01" }, "geometry": { "type": "Point", "coordinates": [ 82.9044631, 55.2187277 ] } },
{ "type": "Feature", "properties": { "name": "Севастьяновка", "time": "01.01.1896 01:01:01+01" }, "geometry": { "type": "Point", "coordinates": [ 81.563408, 55.090515 ] } },
{ "type": "Feature", "properties": { "name": "Дмитриевский", "time": "01.01.1896 01:01:01+01" }, "geometry": { "type": "Point", "coordinates": [ 78.850739, 55.406418 ] } },
{ "type": "Feature", "properties": { "name": "Яркуль", "time": "01.01.1896 01:01:01+01" }, "geometry": { "type": "Point", "coordinates": [ 75.678429, 55.993145 ] } },
{ "type": "Feature", "properties": { "name": "Бровничи", "time": "01.01.1896 01:01:01+01" }, "geometry": { "type": "Point", "coordinates": [ 77.00341, 55.92498 ] } },
{ "type": "Feature", "properties": { "name": "Тимофеевка", "time": "01.01.1896 01:01:01+01" }, "geometry": { "type": "Point", "coordinates": [ 77.4558635, 56.1498693 ] } },
{ "type": "Feature", "properties": { "name": "Новояблоновка", "time": "01.01.1896 01:01:01+01" }, "geometry": { "type": "Point", "coordinates": [ 77.311028, 54.880627 ] } },
{ "type": "Feature", "properties": { "name": "Покровка", "time": "01.01.1896 01:01:01+01" }, "geometry": { "type": "Point", "coordinates": [ 76.471138, 54.827507 ] } },
{ "type": "Feature", "properties": { "name": "Журавка", "time": "01.01.1896 01:01:01+01" }, "geometry": { "type": "Point", "coordinates": [ 76.57132, 54.622936 ] } },
{ "type": "Feature", "properties": { "name": "Раисино", "time": "01.01.1897 01:01:01+01" }, "geometry": { "type": "Point", "coordinates": [ 79.591187, 55.18771 ] } },
{ "type": "Feature", "properties": { "name": "Натальинский", "time": "01.01.1897 01:01:01+01" }, "geometry": { "type": "Point", "coordinates": [ 80.84967, 55.309105 ] } },
{ "type": "Feature", "properties": { "name": "Малоникольское", "time": "01.01.1897 01:01:01+01" }, "geometry": { "type": "Point", "coordinates": [ 81.433716, 54.612495 ] } },
{ "type": "Feature", "properties": { "name": "Козловка", "time": "01.01.1897 01:01:01+01" }, "geometry": { "type": "Point", "coordinates": [ 77.025963, 56.789669 ] } },
{ "type": "Feature", "properties": { "name": "Николаевка", "time": "01.01.1897 01:01:01+01" }, "geometry": { "type": "Point", "coordinates": [ 77.019653, 56.810169 ] } },
{ "type": "Feature", "properties": { "name": "Чаинка", "time": "01.01.1897 01:01:01+01" }, "geometry": { "type": "Point", "coordinates": [ 77.337463, 54.517754 ] } },
{ "type": "Feature", "properties": { "name": "Сокур", "time": "01.01.1898 01:01:01+01" }, "geometry": { "type": "Point", "coordinates": [ 83.3208502, 55.2138096 ] } },
{ "type": "Feature", "properties": { "name": "Серебрянское", "time": "01.01.1898 01:01:01+01" }, "geometry": { "type": "Point", "coordinates": [ 80.6987, 54.875412 ] } },
{ "type": "Feature", "properties": { "name": "Беркуты", "time": "01.01.1898 01:01:01+01" }, "geometry": { "type": "Point", "coordinates": [ 79.99929, 55.182129 ] } },
{ "type": "Feature", "properties": { "name": "Романовка", "time": "01.01.1898 01:01:01+01" }, "geometry": { "type": "Point", "coordinates": [ 76.048569, 54.648792 ] } },
{ "type": "Feature", "properties": { "name": "Ольгино", "time": "01.01.1898 01:01:01+01" }, "geometry": { "type": "Point", "coordinates": [ 76.1702927, 54.7813638 ] } },
{ "type": "Feature", "properties": { "name": "Тасино", "time": "01.01.1898 01:01:01+01" }, "geometry": { "type": "Point", "coordinates": [ 83.7695617, 55.4115616 ] } },
{ "type": "Feature", "properties": { "name": "Остяцк", "time": "01.01.1898 01:01:01+01" }, "geometry": { "type": "Point", "coordinates": [ 78.079613, 56.708874 ] } },
{ "type": "Feature", "properties": { "name": "Верх-Каргат", "time": "01.01.1899 01:01:01+01" }, "geometry": { "type": "Point", "coordinates": [ 80.65448, 55.370548 ] } },
{ "type": "Feature", "properties": { "name": "Владиславский", "time": "01.01.1899 01:01:01+01" }, "geometry": { "type": "Point", "coordinates": [ 81.786766, 55.257309 ] } },
{ "type": "Feature", "properties": { "name": "Петроградский", "time": "01.01.1899 01:01:01+01" }, "geometry": { "type": "Point", "coordinates": [ 80.431549, 55.057476 ] } },
{ "type": "Feature", "properties": { "name": "Александровский", "time": "01.01.1900 01:01:01+01" }, "geometry": { "type": "Point", "coordinates": [ 81.775055, 55.124928 ] } },
{ "type": "Feature", "properties": { "name": "Васильевский", "time": "01.01.1900 01:01:01+01" }, "geometry": { "type": "Point", "coordinates": [ 80.9616547, 55.2777965 ] } },
{ "type": "Feature", "properties": { "name": "Кубанский", "time": "01.01.1900 01:01:01+01" }, "geometry": { "type": "Point", "coordinates": [ 80.443336, 55.107586 ] } },
{ "type": "Feature", "properties": { "name": "Верх-Майзас", "time": "01.01.1900 01:01:01+01" }, "geometry": { "type": "Point", "coordinates": [ 76.889801, 56.684181 ] } },
{ "type": "Feature", "properties": { "name": "ур. Петровка", "time": "01.01.1900 01:01:01+01" }, "geometry": { "type": "Point", "coordinates": [ 77.442635, 56.591209 ] } },
{ "type": "Feature", "properties": { "name": "Бергуль", "time": "01.01.1900 01:01:01+01" }, "geometry": { "type": "Point", "coordinates": [ 78.495499, 56.607479 ] } },
{ "type": "Feature", "properties": { "name": "Очкино", "time": "01.01.1900 01:01:01+01" }, "geometry": { "type": "Point", "coordinates": [ 76.600677, 54.721859 ] } },
{ "type": "Feature", "properties": { "name": "Студенкино", "time": "01.01.1900 01:01:01+01" }, "geometry": { "type": "Point", "coordinates": [ 81.843384, 55.169094 ] } },
{ "type": "Feature", "properties": { "name": "Илюшино", "time": "01.01.1901 01:01:01+01" }, "geometry": { "type": "Point", "coordinates": [ 81.38224, 55.023476 ] } },
{ "type": "Feature", "properties": { "name": "Мошково", "time": "01.01.1901 01:01:01+01" }, "geometry": { "type": "Point", "coordinates": [ 83.611855, 55.304806 ] } },
{ "type": "Feature", "properties": { "name": "Макаровка", "time": "01.01.1901 01:01:01+01" }, "geometry": { "type": "Point", "coordinates": [ 77.5149, 56.632576 ] } },
{ "type": "Feature", "properties": { "name": "Тынгиза", "time": "01.01.1901 01:01:01+01" }, "geometry": { "type": "Point", "coordinates": [ 76.717148, 56.920048 ] } },
{ "type": "Feature", "properties": { "name": "Преображенский", "time": "01.01.1902 01:01:01+01" }, "geometry": { "type": "Point", "coordinates": [ 80.622757, 54.989391 ] } },
{ "type": "Feature", "properties": { "name": "Берестянка", "time": "01.01.1902 01:01:01+01" }, "geometry": { "type": "Point", "coordinates": [ 77.109833, 56.656303 ] } },
{ "type": "Feature", "properties": { "name": "Головниха", "time": "01.01.1902 01:01:01+01" }, "geometry": { "type": "Point", "coordinates": [ 84.2183102, 54.8193124 ] } },
{ "type": "Feature", "properties": { "name": "Кучеровский", "time": "01.01.1902 01:01:01+01" }, "geometry": { "type": "Point", "coordinates": [ 83.8629202, 54.8844001 ] } },
{ "type": "Feature", "properties": { "name": "Кудряшовский", "time": "01.01.1903 01:01:01+01" }, "geometry": { "type": "Point", "coordinates": [ 82.7722973, 55.0978396 ] } },
{ "type": "Feature", "properties": { "name": "Голубовский", "time": "01.01.1903 01:01:01+01" }, "geometry": { "type": "Point", "coordinates": [ 80.4087043, 54.993038 ] } },
{ "type": "Feature", "properties": { "name": "Мокрушино", "time": "01.01.1904 01:01:01+01" }, "geometry": { "type": "Point", "coordinates": [ 84.865623, 54.749607 ] } },
{ "type": "Feature", "properties": { "name": "Новая Чебула", "time": "01.01.1904 01:01:01+01" }, "geometry": { "type": "Point", "coordinates": [ 84.06855, 55.559055 ] } },
{ "type": "Feature", "properties": { "name": "Новобибеево", "time": "01.01.1904 01:01:01+01" }, "geometry": { "type": "Point", "coordinates": [ 83.7505327, 55.6966012 ] } },
{ "type": "Feature", "properties": { "name": "Егоровка", "time": "01.01.1904 01:01:01+01" }, "geometry": { "type": "Point", "coordinates": [ 84.217545, 55.62146 ] } },
{ "type": "Feature", "properties": { "name": "Неудачино", "time": "01.01.1905 01:01:01+01" }, "geometry": { "type": "Point", "coordinates": [ 75.507233, 55.135757 ] } },
{ "type": "Feature", "properties": { "name": "Сарапулка", "time": "01.01.1905 01:01:01+01" }, "geometry": { "type": "Point", "coordinates": [ 83.750015, 55.158222 ] } },
{ "type": "Feature", "properties": { "name": "Смоленский", "time": "01.01.1905 01:01:01+01" }, "geometry": { "type": "Point", "coordinates": [ 83.3635663, 55.1974324 ] } },
{ "type": "Feature", "properties": { "name": "Кудельный Ключ", "time": "01.01.1905 01:01:01+01" }, "geometry": { "type": "Point", "coordinates": [ 84.255737, 55.157078 ] } },
{ "type": "Feature", "properties": { "name": "Медяковский", "time": "01.01.1905 01:01:01+01" }, "geometry": { "type": "Point", "coordinates": [ 80.5038943, 55.5307022 ] } },
{ "type": "Feature", "properties": { "name": "Дубинский", "time": "01.01.1906 01:01:01+01" }, "geometry": { "type": "Point", "coordinates": [ 83.544426, 54.836926 ] } },
{ "type": "Feature", "properties": { "name": "Шумиха", "time": "01.01.1906 01:01:01+01" }, "geometry": { "type": "Point", "coordinates": [ 83.647934, 55.601086 ] } },
{ "type": "Feature", "properties": { "name": "Ермиловка", "time": "01.01.1906 01:01:01+01" }, "geometry": { "type": "Point", "coordinates": [ 81.937386, 55.307846 ] } },
{ "type": "Feature", "properties": { "name": "Новоалексеевка", "time": "01.01.1906 01:01:01+01" }, "geometry": { "type": "Point", "coordinates": [ 78.837326, 55.676636 ] } },
{ "type": "Feature", "properties": { "name": "Нечаевский", "time": "01.01.1906 01:01:01+01" }, "geometry": { "type": "Point", "coordinates": [ 84.380035, 55.209885 ] } },
{ "type": "Feature", "properties": { "name": "Новоивановка", "time": "01.01.1906 01:01:01+01" }, "geometry": { "type": "Point", "coordinates": [ 77.897743, 53.461269 ] } },
{ "type": "Feature", "properties": { "name": "Дупленская", "time": "01.01.1907 01:01:01+01" }, "geometry": { "type": "Point", "coordinates": [ 81.6208178, 55.0859557 ] } },
{ "type": "Feature", "properties": { "name": "Обской", "time": "01.01.1907 01:01:01+01" }, "geometry": { "type": "Point", "coordinates": [ 83.445213, 55.47443 ] } },
{ "type": "Feature", "properties": { "name": "Пермский", "time": "01.01.1907 01:01:01+01" }, "geometry": { "type": "Point", "coordinates": [ 83.78698, 55.036983 ] } },
{ "type": "Feature", "properties": { "name": "Самарский", "time": "01.01.1907 01:01:01+01" }, "geometry": { "type": "Point", "coordinates": [ 83.735825, 55.084675 ] } },
{ "type": "Feature", "properties": { "name": "Налетиха", "time": "01.01.1907 01:01:01+01" }, "geometry": { "type": "Point", "coordinates": [ 83.89328, 54.947227 ] } },
{ "type": "Feature", "properties": { "name": "Канабишка", "time": "01.01.1907 01:01:01+01" }, "geometry": { "type": "Point", "coordinates": [ 84.174209, 55.0255536 ] } },
{ "type": "Feature", "properties": { "name": "Высокая Грива", "time": "01.01.1907 01:01:01+01" }, "geometry": { "type": "Point", "coordinates": [ 84.457436, 55.118587 ] } },
{ "type": "Feature", "properties": { "name": "Мезениха", "time": "01.01.1907 01:01:01+01" }, "geometry": { "type": "Point", "coordinates": [ 84.2034, 55.274872 ] } },
{ "type": "Feature", "properties": { "name": "Златоуст", "time": "01.01.1907 01:01:01+01" }, "geometry": { "type": "Point", "coordinates": [ 84.142738, 55.259163 ] } },
{ "type": "Feature", "properties": { "name": "Кайлы", "time": "01.01.1907 01:01:01+01" }, "geometry": { "type": "Point", "coordinates": [ 84.082893, 55.29488 ] } },
{ "type": "Feature", "properties": { "name": "Кадниха", "time": "01.01.1907 01:01:01+01" }, "geometry": { "type": "Point", "coordinates": [ 84.242332, 55.022289 ] } },
{ "type": "Feature", "properties": { "name": "Изынский", "time": "01.01.1907 01:01:01+01" }, "geometry": { "type": "Point", "coordinates": [ 83.993073, 55.179623 ] } },
{ "type": "Feature", "properties": { "name": "Емельяновский", "time": "01.01.1907 01:01:01+01" }, "geometry": { "type": "Point", "coordinates": [ 83.3402358, 55.2517228 ] } },
{ "type": "Feature", "properties": { "name": "Ермаковский", "time": "01.01.1907 01:01:01+01" }, "geometry": { "type": "Point", "coordinates": [ 80.3113566, 54.1281593 ] } },
{ "type": "Feature", "properties": { "name": "Участок-Балта", "time": "01.01.1907 01:01:01+01" }, "geometry": { "type": "Point", "coordinates": [ 83.931267, 55.430286 ] } },
{ "type": "Feature", "properties": { "name": "Сарачевка", "time": "01.01.1907 01:01:01+01" }, "geometry": { "type": "Point", "coordinates": [ 83.599739, 55.506248 ] } },
{ "type": "Feature", "properties": { "name": "Бурлиха", "time": "01.01.1907 01:01:01+01" }, "geometry": { "type": "Point", "coordinates": [ 83.945679, 55.532059 ] } },
{ "type": "Feature", "properties": { "name": "Новоалександровка", "time": "01.01.1907 01:01:01+01" }, "geometry": { "type": "Point", "coordinates": [ 83.76976, 55.390987 ] } },
{ "type": "Feature", "properties": { "name": "Баратаевка", "time": "01.01.1907 01:01:01+01" }, "geometry": { "type": "Point", "coordinates": [ 84.449059, 55.618763 ] } },
{ "type": "Feature", "properties": { "name": "Большеречка", "time": "01.01.1907 01:01:01+01" }, "geometry": { "type": "Point", "coordinates": [ 84.530533, 55.56694 ] } },
{ "type": "Feature", "properties": { "name": "Кунчурук", "time": "01.01.1907 01:01:01+01" }, "geometry": { "type": "Point", "coordinates": [ 84.2958217, 55.9201028 ] } },
{ "type": "Feature", "properties": { "name": "Дивинка", "time": "01.01.1907 01:01:01+01" }, "geometry": { "type": "Point", "coordinates": [ 84.473923, 55.696388 ] } },
{ "type": "Feature", "properties": { "name": "Кочетовка", "time": "01.01.1907 01:01:01+01" }, "geometry": { "type": "Point", "coordinates": [ 82.23452, 55.397663 ] } },
{ "type": "Feature", "properties": { "name": "Троицк", "time": "01.01.1907 01:01:01+01" }, "geometry": { "type": "Point", "coordinates": [ 82.245804, 55.129101 ] } },
{ "type": "Feature", "properties": { "name": "Новокремлёвское", "time": "01.01.1907 01:01:01+01" }, "geometry": { "type": "Point", "coordinates": [ 82.314896, 55.197346 ] } },
{ "type": "Feature", "properties": { "name": "Антоновка", "time": "01.01.1907 01:01:01+01" }, "geometry": { "type": "Point", "coordinates": [ 82.298119, 54.827515 ] } },
{ "type": "Feature", "properties": { "name": "Казанка", "time": "01.01.1907 01:01:01+01" }, "geometry": { "type": "Point", "coordinates": [ 81.665161, 54.794914 ] } },
{ "type": "Feature", "properties": { "name": "Ольшанский", "time": "01.01.1907 01:01:01+01" }, "geometry": { "type": "Point", "coordinates": [ 81.795837, 55.013729 ] } },
{ "type": "Feature", "properties": { "name": "Лесная Поляна", "time": "01.01.1907 01:01:01+01" }, "geometry": { "type": "Point", "coordinates": [ 81.940422, 55.042 ] } },
{ "type": "Feature", "properties": { "name": "Бармашево", "time": "01.01.1907 01:01:01+01" }, "geometry": { "type": "Point", "coordinates": [ 82.069046, 55.008022 ] } },
{ "type": "Feature", "properties": { "name": "Осиновский", "time": "01.01.1907 01:01:01+01" }, "geometry": { "type": "Point", "coordinates": [ 81.477379, 54.821667 ] } },
{ "type": "Feature", "properties": { "name": "Александровский", "time": "01.01.1907 01:01:01+01" }, "geometry": { "type": "Point", "coordinates": [ 80.853195, 54.56879 ] } },
{ "type": "Feature", "properties": { "name": "Сидоркино", "time": "01.01.1907 01:01:01+01" }, "geometry": { "type": "Point", "coordinates": [ 81.397842, 54.862995 ] } },
{ "type": "Feature", "properties": { "name": "Новорождественский", "time": "01.01.1907 01:01:01+01" }, "geometry": { "type": "Point", "coordinates": [ 81.452492, 54.79422 ] } },
{ "type": "Feature", "properties": { "name": "Синельниково", "time": "01.01.1907 01:01:01+01" }, "geometry": { "type": "Point", "coordinates": [ 80.988068, 54.75647 ] } },
{ "type": "Feature", "properties": { "name": "Бочино", "time": "01.01.1907 01:01:01+01" }, "geometry": { "type": "Point", "coordinates": [ 81.004303, 55.286251 ] } },
{ "type": "Feature", "properties": { "name": "Иванкино", "time": "01.01.1907 01:01:01+01" }, "geometry": { "type": "Point", "coordinates": [ 79.915459, 54.890182 ] } },
{ "type": "Feature", "properties": { "name": "Новокиевка", "time": "01.01.1907 01:01:01+01" }, "geometry": { "type": "Point", "coordinates": [ 78.669472, 55.579308 ] } },
{ "type": "Feature", "properties": { "name": "Яминка", "time": "01.01.1907 01:01:01+01" }, "geometry": { "type": "Point", "coordinates": [ 75.955002, 54.710823 ] } },
{ "type": "Feature", "properties": { "name": "Георгиевка", "time": "01.01.1907 01:01:01+01" }, "geometry": { "type": "Point", "coordinates": [ 75.941765, 54.758839 ] } },
{ "type": "Feature", "properties": { "name": "Павловка", "time": "01.01.1907 01:01:01+01" }, "geometry": { "type": "Point", "coordinates": [ 76.222099, 54.490189 ] } },
{ "type": "Feature", "properties": { "name": "Королёвка", "time": "01.01.1907 01:01:01+01" }, "geometry": { "type": "Point", "coordinates": [ 83.025383, 56.035179 ] } },
{ "type": "Feature", "properties": { "name": "Семёновский", "time": "01.01.1907 01:01:01+01" }, "geometry": { "type": "Point", "coordinates": [ 82.056702, 55.159451 ] } },
{ "type": "Feature", "properties": { "name": "Верх-Ачино", "time": "01.01.1907 01:01:01+01" }, "geometry": { "type": "Point", "coordinates": [ 84.620308, 55.444454 ] } },
{ "type": "Feature", "properties": { "name": "Останино", "time": "01.01.1907 01:01:01+01" }, "geometry": { "type": "Point", "coordinates": [ 84.469841, 55.351444 ] } },
{ "type": "Feature", "properties": { "name": "Ермачиха", "time": "01.01.1907 01:01:01+01" }, "geometry": { "type": "Point", "coordinates": [ 83.865929, 55.109436 ] } },
{ "type": "Feature", "properties": { "name": "Мезениха", "time": "01.01.1907 01:01:01+01" }, "geometry": { "type": "Point", "coordinates": [ 84.199623, 55.243973 ] } },
{ "type": "Feature", "properties": { "name": "Малокарагаевка", "time": "01.01.1907 01:01:01+01" }, "geometry": { "type": "Point", "coordinates": [ 78.591698, 56.647511 ] } },
{ "type": "Feature", "properties": { "name": "Малиновка", "time": "01.01.1907 01:01:01+01" }, "geometry": { "type": "Point", "coordinates": [ 78.055977, 56.396725 ] } },
{ "type": "Feature", "properties": { "name": "Александро-Невский", "time": "01.01.1907 01:01:01+01" }, "geometry": { "type": "Point", "coordinates": [ 77.392738, 54.020546 ] } },
{ "type": "Feature", "properties": { "name": "Соловьёвка", "time": "01.01.1907 01:01:01+01" }, "geometry": { "type": "Point", "coordinates": [ 77.367729, 53.938618 ] } },
{ "type": "Feature", "properties": { "name": "Казанка", "time": "01.01.1907 01:01:01+01" }, "geometry": { "type": "Point", "coordinates": [ 77.430634, 53.983753 ] } },
{ "type": "Feature", "properties": { "name": "Андреевка", "time": "01.01.1907 01:01:01+01" }, "geometry": { "type": "Point", "coordinates": [ 77.445992, 53.843163 ] } },
{ "type": "Feature", "properties": { "name": "Мироновка", "time": "01.01.1907 01:01:01+01" }, "geometry": { "type": "Point", "coordinates": [ 77.747231, 53.844803 ] } },
{ "type": "Feature", "properties": { "name": "Петраки", "time": "01.01.1907 01:01:01+01" }, "geometry": { "type": "Point", "coordinates": [ 78.377716, 54.758919 ] } },
{ "type": "Feature", "properties": { "name": "Морозовка", "time": "01.01.1907 01:01:01+01" }, "geometry": { "type": "Point", "coordinates": [ 78.334526, 53.921417 ] } },
{ "type": "Feature", "properties": { "name": "Калачи", "time": "01.01.1907 01:01:01+01" }, "geometry": { "type": "Point", "coordinates": [ 77.879082, 53.590782 ] } },
{ "type": "Feature", "properties": { "name": "Благовещенка", "time": "01.01.1907 01:01:01+01" }, "geometry": { "type": "Point", "coordinates": [ 76.944069, 53.925667 ] } },
{ "type": "Feature", "properties": { "name": "Новоселье", "time": "01.01.1907 01:01:01+01" }, "geometry": { "type": "Point", "coordinates": [ 76.885658, 54.17075 ] } },
{ "type": "Feature", "properties": { "name": "Медяково", "time": "01.01.1907 01:01:01+01" }, "geometry": { "type": "Point", "coordinates": [ 77.087288, 54.129219 ] } },
{ "type": "Feature", "properties": { "name": "Орловка", "time": "01.01.1907 01:01:01+01" }, "geometry": { "type": "Point", "coordinates": [ 76.660858, 54.481796 ] } },
{ "type": "Feature", "properties": { "name": "Чебаклы", "time": "01.01.1907 01:01:01+01" }, "geometry": { "type": "Point", "coordinates": [ 76.90873, 54.647518 ] } },
{ "type": "Feature", "properties": { "name": "Новоалексеевка", "time": "01.01.1907 01:01:01+01" }, "geometry": { "type": "Point", "coordinates": [ 76.605186, 54.78619 ] } },
{ "type": "Feature", "properties": { "name": "Водопойное", "time": "01.01.1907 01:01:01+01" }, "geometry": { "type": "Point", "coordinates": [ 76.373734, 54.858032 ] } },
{ "type": "Feature", "properties": { "name": "Ковалевское", "time": "01.01.1907 01:01:01+01" }, "geometry": { "type": "Point", "coordinates": [ 83.9520855, 55.0257226 ] } },
{ "type": "Feature", "properties": { "name": "Студеновский", "time": "01.01.1907 01:01:01+01" }, "geometry": { "type": "Point", "coordinates": [ 84.0345712, 54.8502766 ] } },
{ "type": "Feature", "properties": { "name": "Верхняя Агафониха", "time": "01.01.1907 01:01:01+01" }, "geometry": { "type": "Point", "coordinates": [ 84.0542714, 54.9221971 ] } },
{ "type": "Feature", "properties": { "name": "урочище Верх-Изылинское", "time": "01.01.1907 01:01:01+01" }, "geometry": { "type": "Point", "coordinates": [ 83.9773926, 54.984615 ] } },
{ "type": "Feature", "properties": { "name": "ур. Лебединка", "time": "01.01.1907 01:01:01+01" }, "geometry": { "type": "Point", "coordinates": [ 82.9736981, 55.9429914 ] } },
{ "type": "Feature", "properties": { "name": "Асановка", "time": "01.01.1907 01:01:01+01" }, "geometry": { "type": "Point", "coordinates": [ 84.4969535, 55.4830145 ] } },
{ "type": "Feature", "properties": { "name": "урочище Арановка", "time": "01.01.1907 01:01:01+01" }, "geometry": { "type": "Point", "coordinates": [ 83.8697148, 55.368635 ] } },
{ "type": "Feature", "properties": { "name": "урочище Викмаковка", "time": "01.01.1907 01:01:01+01" }, "geometry": { "type": "Point", "coordinates": [ 83.5867734, 55.055047 ] } },
{ "type": "Feature", "properties": { "name": "урочище Калужское", "time": "01.01.1907 01:01:01+01" }, "geometry": { "type": "Point", "coordinates": [ 84.8245132, 55.3440988 ] } },
{ "type": "Feature", "properties": { "name": "Коноваловка", "time": "01.01.1907 01:01:01+01" }, "geometry": { "type": "Point", "coordinates": [ 77.840538, 55.9317986 ] } },
{ "type": "Feature", "properties": { "name": "Изовка", "time": "01.01.1908 01:01:01+01" }, "geometry": { "type": "Point", "coordinates": [ 83.243805, 55.780582 ] } },
{ "type": "Feature", "properties": { "name": "Троицкое", "time": "01.01.1908 01:01:01+01" }, "geometry": { "type": "Point", "coordinates": [ 77.82058, 53.72477 ] } },
{ "type": "Feature", "properties": { "name": "Аплаксино", "time": "01.01.1908 01:01:01+01" }, "geometry": { "type": "Point", "coordinates": [ 83.741875, 54.941048 ] } },
{ "type": "Feature", "properties": { "name": "Шуринский", "time": "01.01.1908 01:01:01+01" }, "geometry": { "type": "Point", "coordinates": [ 83.3587314, 55.2085503 ] } },
{ "type": "Feature", "properties": { "name": "Варламово", "time": "01.01.1908 01:01:01+01" }, "geometry": { "type": "Point", "coordinates": [ 84.361465, 55.808899 ] } },
{ "type": "Feature", "properties": { "name": "Антипинский", "time": "01.01.1908 01:01:01+01" }, "geometry": { "type": "Point", "coordinates": [ 81.623398, 54.970196 ] } },
{ "type": "Feature", "properties": { "name": "Филимоновский", "time": "01.01.1908 01:01:01+01" }, "geometry": { "type": "Point", "coordinates": [ 81.071777, 54.93045 ] } },
{ "type": "Feature", "properties": { "name": "Ваничкино", "time": "01.01.1908 01:01:01+01" }, "geometry": { "type": "Point", "coordinates": [ 80.850349, 54.917686 ] } },
{ "type": "Feature", "properties": { "name": "Орловский", "time": "01.01.1908 01:01:01+01" }, "geometry": { "type": "Point", "coordinates": [ 81.432152, 54.917698 ] } },
{ "type": "Feature", "properties": { "name": "Боготольский", "time": "01.01.1908 01:01:01+01" }, "geometry": { "type": "Point", "coordinates": [ 81.4012045, 54.731052 ] } },
{ "type": "Feature", "properties": { "name": "Волковский", "time": "01.01.1908 01:01:01+01" }, "geometry": { "type": "Point", "coordinates": [ 81.041374, 54.88467 ] } },
{ "type": "Feature", "properties": { "name": "Степановка", "time": "01.01.1908 01:01:01+01" }, "geometry": { "type": "Point", "coordinates": [ 78.1129941, 55.7952395 ] } },
{ "type": "Feature", "properties": { "name": "Новотроицк", "time": "01.01.1908 01:01:01+01" }, "geometry": { "type": "Point", "coordinates": [ 78.677933, 56.189171 ] } },
{ "type": "Feature", "properties": { "name": "Алёшинка", "time": "01.01.1908 01:01:01+01" }, "geometry": { "type": "Point", "coordinates": [ 78.943741, 56.339302 ] } },
{ "type": "Feature", "properties": { "name": "Кордон", "time": "01.01.1908 01:01:01+01" }, "geometry": { "type": "Point", "coordinates": [ 79.087364, 56.441681 ] } },
{ "type": "Feature", "properties": { "name": "Стретинка", "time": "01.01.1908 01:01:01+01" }, "geometry": { "type": "Point", "coordinates": [ 77.7484121, 54.0496653 ] } },
{ "type": "Feature", "properties": { "name": "Ивановка", "time": "01.01.1908 01:01:01+01" }, "geometry": { "type": "Point", "coordinates": [ 77.239647, 54.009651 ] } },
{ "type": "Feature", "properties": { "name": "Саратовка", "time": "01.01.1908 01:01:01+01" }, "geometry": { "type": "Point", "coordinates": [ 77.1782001, 53.7482831 ] } },
{ "type": "Feature", "properties": { "name": "Новоалексеевка", "time": "01.01.1908 01:01:01+01" }, "geometry": { "type": "Point", "coordinates": [ 78.217712, 54.727821 ] } },
{ "type": "Feature", "properties": { "name": "Новомихайловка", "time": "01.01.1908 01:01:01+01" }, "geometry": { "type": "Point", "coordinates": [ 78.091011, 54.745502 ] } },
{ "type": "Feature", "properties": { "name": "Октябрьское", "time": "01.01.1908 01:01:01+01" }, "geometry": { "type": "Point", "coordinates": [ 77.804672, 53.513443 ] } },
{ "type": "Feature", "properties": { "name": "Павловка", "time": "01.01.1908 01:01:01+01" }, "geometry": { "type": "Point", "coordinates": [ 77.757042, 53.432838 ] } },
{ "type": "Feature", "properties": { "name": "Богословка", "time": "01.01.1908 01:01:01+01" }, "geometry": { "type": "Point", "coordinates": [ 77.30188, 53.686256 ] } },
{ "type": "Feature", "properties": { "name": "Петропавловка", "time": "01.01.1908 01:01:01+01" }, "geometry": { "type": "Point", "coordinates": [ 77.06356, 53.910324 ] } },
{ "type": "Feature", "properties": { "name": "Бугриновка", "time": "01.01.1908 01:01:01+01" }, "geometry": { "type": "Point", "coordinates": [ 76.664383, 54.395412 ] } },
{ "type": "Feature", "properties": { "name": "Поповка", "time": "01.01.1908 01:01:01+01" }, "geometry": { "type": "Point", "coordinates": [ 77.6472759, 53.7342099 ] } },
{ "type": "Feature", "properties": { "name": "Троицкий", "time": "01.01.1909 01:01:01+01" }, "geometry": { "type": "Point", "coordinates": [ 79.92907, 54.00798 ] } },